,base,cloudiness,cod,latitude,longitude,dt,id,main.grnd_level,humidity,main.pressure,main.sea_level,temperature,main.temp_max,main.temp_min,message,name,rain.1h,rain.3h,sys.country,sys.id,sys.message,sys.sunrise,sys.sunset,sys.type,timezone,visibility,weather,wind.deg,wind.gust,windspeed
0,stations,0.0,200,-33.21,138.6,1562640026.0,2069194.0,983.98,59.0,1020.83,1020.83,287.133,287.133,287.133,,Jamestown,,,AU,,0.0072,1562622527.0,1562658733.0,,34200.0,,"[{'id': 800, 'main': 'Clear', 'description': 'clear sky', 'icon': '01d'}]",292.562,,3.88
1,stations,24.0,200,18.62,-100.35,1562640118.0,3981460.0,949.3,72.0,1014.87,1014.87,297.703,297.703,297.703,,Coahuayana,,,MX,,0.0078,1562587822.0,1562635328.0,,-18000.0,,"[{'id': 801, 'main': 'Clouds', 'description': 'few clouds', 'icon': '02n'}]",67.659,,1.44
2,,,404,,,,,,,,,,,,city not found,,,,,,,,,,,,,,,
3,stations,0.0,200,-21.21,-159.78,1562640113.0,4035715.0,,78.0,1014.0,,298.15,298.15,298.15,,Avarua,,,CK,7271.0,0.007,1562606221.0,1562645458.0,1.0,-36000.0,10000.0,"[{'id': 800, 'main': 'Clear', 'description': 'clear sky', 'icon': '01n'}]",50.0,,2.1
4,stations,100.0,200,-46.19,168.86,1562640011.0,6201424.0,,77.0,1006.0,,283.15,283.15,283.15,,Mataura,,0.375,NZ,2008959.0,0.008,1562617546.0,1562649188.0,3.0,43200.0,,"[{'id': 500, 'main': 'Rain', 'description': 'light rain', 'icon': '10d'}]",240.0,9.83,4.92
5,stations,30.0,200,60.75,-137.51,1562640118.0,5969025.0,884.74,35.0,1013.47,1013.47,293.173,293.173,293.173,,Haines Junction,,,CA,,0.007,1562586801.0,1562654188.0,,-25200.0,,"[{'id': 802, 'main': 'Clouds', 'description': 'scattered clouds', 'icon': '03n'}]",335.809,,2.37
6,stations,75.0,200,17.01,54.1,1562639932.0,286621.0,,83.0,1001.0,,301.15,301.15,301.15,,Salalah,,,OM,7562.0,0.0069,1562637345.0,1562684479.0,1.0,14400.0,10000.0,"[{'id': 803, 'main': 'Clouds', 'description': 'broken clouds', 'icon': '04d'}]",180.0,,2.1
7,stations,75.0,200,34.64,-120.46,1562640044.0,5367788.0,,77.0,1017.0,,290.33,292.04,288.15,,Lompoc,,,US,4747.0,0.0082,1562590543.0,1562642261.0,1.0,-25200.0,16093.0,"[{'id': 803, 'main': 'Clouds', 'description': 'broken clouds', 'icon': '04n'}]",290.0,,5.1
8,stations,38.0,200,-39.94,176.59,1562640119.0,2185329.0,,77.0,1008.0,,284.26,284.26,284.26,,Waipawa,,,NZ,2010964.0,0.0074,1562614471.0,1562648552.0,3.0,43200.0,,"[{'id': 802, 'main': 'Clouds', 'description': 'scattered clouds', 'icon': '03d'}]",225.0,4.92,3.13
9,stations,75.0,200,41.96,42.96,1562640118.0,610864.0,,94.0,1010.0,,295.15,295.15,295.15,,Khani,,,GE,8856.0,0.0058,1562636450.0,1562690722.0,1.0,14400.0,10000.0,"[{'id': 803, 'main': 'Clouds', 'description': 'broken clouds', 'icon': '04d'}]",340.0,,1.0
10,stations,0.0,200,-54.81,-68.31,1562639804.0,3833367.0,,86.0,1012.0,,276.15,276.15,276.15,,Ushuaia,,,AR,8303.0,0.008,1562590454.0,1562617315.0,1.0,-10800.0,10000.0,"[{'id': 800, 'main': 'Clear', 'description': 'clear sky', 'icon': '01n'}]",340.0,,3.1
11,stations,0.0,200,-34.42,19.24,1562640018.0,3366880.0,,92.0,1025.0,,284.82,284.82,284.82,,Hermanus,,,ZA,2003650.0,0.0056,1562651345.0,1562687214.0,3.0,7200.0,,"[{'id': 800, 'main': 'Clear', 'description': 'clear sky', 'icon': '01n'}]",16.0,2.24,0.89
12,stations,20.0,200,-42.88,147.33,1562639743.0,2163355.0,,54.0,1010.0,,285.63,286.15,284.82,,Hobart,,,AU,9545.0,0.0074,1562622030.0,1562655040.0,1.0,36000.0,10000.0,"[{'id': 801, 'main': 'Clouds', 'description': 'few clouds', 'icon': '02d'}]",300.0,,8.7
13,stations,100.0,200,26.24,84.15,1562640121.0,1264282.0,987.26,90.0,995.59,995.59,299.063,299.063,299.063,,Mairwa,,15.938,IN,,0.0066,1562629037.0,1562678361.0,,19800.0,,"[{'id': 502, 'main': 'Rain', 'description': 'heavy intensity rain', 'icon': '10d'}]",86.596,,8.71
14,stations,20.0,200,-42.78,147.06,1562640121.0,2155415.0,,54.0,1010.0,,285.86,286.48,284.82,,New Norfolk,,,AU,9545.0,0.0072,1562622075.0,1562655124.0,1.0,36000.0,10000.0,"[{'id': 801, 'main': 'Clouds', 'description': 'few clouds', 'icon': '02d'}]",300.0,,8.7
15,stations,100.0,200,-33.69,-53.46,1562640121.0,3443061.0,1023.05,73.0,1024.21,1024.21,282.003,282.003,282.003,,Chuy,,,UY,,0.0074,1562582297.0,1562618344.0,,-10800.0,,"[{'id': 804, 'main': 'Clouds', 'description': 'overcast clouds', 'icon': '04n'}]",10.513,,3.13
16,stations,0.0,200,54.92,83.08,1562640121.0,1496747.0,,73.0,1005.0,,294.15,294.15,294.15,,Matveyevka,,,RU,8958.0,0.0062,1562623253.0,1562684660.0,1.0,25200.0,10000.0,"[{'id': 800, 'main': 'Clear', 'description': 'clear sky', 'icon': '01d'}]",170.0,,3.0
17,stations,20.0,200,42.65,-73.75,1562640122.0,5106834.0,,56.0,1015.0,,289.96,294.26,285.93,,Albany,,,US,3273.0,0.0104,1562577893.0,1562632488.0,1.0,-14400.0,16093.0,"[{'id': 801, 'main': 'Clouds', 'description': 'few clouds', 'icon': '02n'}]",190.0,,2.1
18,stations,100.0,200,50.68,156.12,1562640099.0,2121385.0,1011.21,96.0,1010.52,1010.52,278.803,278.803,278.803,,Severo-Kurilsk,,0.125,RU,,0.0073,1562607160.0,1562665690.0,,39600.0,,"[{'id': 500, 'main': 'Rain', 'description': 'light rain', 'icon': '10d'}]",110.189,,4.73
19,stations,8.0,200,-4.85,21.56,1562640122.0,207596.0,952.87,65.0,1012.5,1012.5,291.293,291.293,291.293,,Mweka,,,CD,,0.009,1562647387.0,1562690058.0,,7200.0,,"[{'id': 800, 'main': 'Clear', 'description': 'clear sky', 'icon': '01n'}]",213.242,,0.67
20,stations,100.0,200,-46.13,167.69,1562640122.0,2180815.0,,77.0,1006.0,,283.15,283.15,283.15,,Tuatapere,,0.25,NZ,2008959.0,0.0086,1562617813.0,1562649482.0,3.0,43200.0,,"[{'id': 500, 'main': 'Rain', 'description': 'light rain', 'icon': '10d'}]",240.0,9.83,4.92
21,stations,75.0,200,3.17,113.03,1562640123.0,1737486.0,,74.0,1012.0,,303.15,303.15,303.15,,Bintulu,,,MY,9365.0,0.0088,1562624637.0,1562668898.0,1.0,28800.0,10000.0,"[{'id': 803, 'main': 'Clouds', 'description': 'broken clouds', 'icon': '04d'}]",,,2.1
22,stations,93.0,200,29.72,113.88,1562640123.0,1798473.0,1001.67,78.0,1004.71,1004.71,298.753,298.753,298.753,,Puqi,,0.125,CN,,0.0067,1562621437.0,1562671690.0,,28800.0,,"[{'id': 500, 'main': 'Rain', 'description': 'light rain', 'icon': '10d'}]",23.144,,4.68
23,stations,0.0,200,43.56,6.97,1562640123.0,3037456.0,,69.0,1010.0,,296.56,299.82,294.26,,Saint-Joseph,,,FR,6507.0,0.0088,1562644763.0,1562699686.0,1.0,7200.0,10000.0,"[{'id': 800, 'main': 'Clear', 'description': 'clear sky', 'icon': '01n'}]",10.0,,1.5
24,stations,100.0,200,-21.64,-41.05,1562640123.0,3448903.0,1015.78,72.0,1027.22,1027.22,289.713,289.713,289.713,,Sao Joao da Barra,,,BR,,0.0076,1562577776.0,1562616907.0,,-10800.0,,"[{'id': 804, 'main': 'Clouds', 'description': 'overcast clouds', 'icon': '04n'}]",197.592,,0.56
25,stations,90.0,200,-53.16,-70.91,1562640022.0,3874787.0,,93.0,1012.0,,278.15,278.15,278.15,,Punta Arenas,,,CL,8487.0,0.008,1562590530.0,1562618487.0,1.0,-10800.0,2000.0,"[{'id': 701, 'main': 'Mist', 'description': 'mist', 'icon': '50n'}]",40.0,,2.6
26,stations,0.0,200,-23.58,149.07,1562640124.0,2175403.0,998.41,48.0,1018.6,1018.6,295.223,295.223,295.223,,Bluff,,,AU,,0.007,1562618771.0,1562657463.0,,36000.0,,"[{'id': 800, 'main': 'Clear', 'description': 'clear sky', 'icon': '01d'}]",98.515,,2.32
27,stations,0.0,200,-20.74,116.85,1562639944.0,6620339.0,1008.46,16.0,1019.31,1019.31,302.233,302.233,302.233,,Karratha,,,AU,,0.0067,1562626176.0,1562665525.0,,28800.0,,"[{'id': 800, 'main': 'Clear', 'description': 'clear sky', 'icon': '01d'}]",112.58,,4.28
28,stations,100.0,200,-0.92,100.36,1562640124.0,1633419.0,1013.08,76.0,1013.56,1013.56,298.833,298.833,298.833,,Padang,,,ID,,0.0064,1562628084.0,1562671533.0,,25200.0,,"[{'id': 804, 'main': 'Clouds', 'description': 'overcast clouds', 'icon': '04d'}]",24.815,,1.1
29,stations,75.0,200,2.29,111.83,1562639987.0,1735902.0,,79.0,1012.0,,301.15,302.15,300.93,,Sibu,,,MY,9369.0,0.009,1562625013.0,1562669098.0,1.0,28800.0,10000.0,"[{'id': 803, 'main': 'Clouds', 'description': 'broken clouds', 'icon': '04d'}]",,,1.0
30,stations,96.0,200,14.68,-86.92,1562640125.0,3609418.0,912.97,90.0,1015.73,1015.73,293.103,293.103,293.103,,San Cristobal,,,HN,,0.006,1562585034.0,1562631670.0,,-21600.0,,"[{'id': 804, 'main': 'Clouds', 'description': 'overcast clouds', 'icon': '04n'}]",96.434,,2.44
31,stations,0.0,200,-20.63,-46.0,1562640125.0,3453439.0,914.68,78.0,1025.43,1025.43,284.093,284.093,284.093,,Ponta do Sol,,,BR,,0.006,1562578849.0,1562618210.0,,-10800.0,,"[{'id': 800, 'main': 'Clear', 'description': 'clear sky', 'icon': '01n'}]",48.99,,1.57
32,stations,0.0,200,62.23,-6.59,1562640125.0,2618795.0,,93.0,1020.0,,279.15,279.15,279.15,,Klaksvik,,,FO,1596.0,0.0089,1562640755.0,1562710203.0,1.0,3600.0,10000.0,"[{'id': 800, 'main': 'Clear', 'description': 'clear sky', 'icon': '01n'}]",70.0,,1.0
33,stations,16.0,200,-23.12,-134.97,1562640125.0,4030556.0,1013.85,84.0,1014.4,1014.4,296.483,296.483,296.483,,Rikitea,,0.188,PF,,0.0115,1562600487.0,1562639282.0,,-32400.0,,"[{'id': 500, 'main': 'Rain', 'description': 'light rain', 'icon': '10n'}]",77.538,,8.33
34,stations,13.0,200,-9.8,-139.03,1562640126.0,4020109.0,1010.5,76.0,1010.37,1010.37,299.863,299.863,299.863,,Atuona,,0.562,PF,,0.0108,1562600023.0,1562641696.0,,-34200.0,,"[{'id': 500, 'main': 'Rain', 'description': 'light rain', 'icon': '10n'}]",88.45,,6.54
35,stations,4.0,200,-16.48,-151.75,1562640126.0,4034551.0,1011.74,82.0,1011.77,1011.77,299.253,299.253,299.253,,Faanui,,,PF,,0.008,1562603772.0,1562644053.0,,-36000.0,,"[{'id': 800, 'main': 'Clear', 'description': 'clear sky', 'icon': '01n'}]",110.955,,7.25
36,stations,0.0,200,39.77,98.29,1562640126.0,1280957.0,826.01,32.0,1010.67,1010.67,295.223,295.223,295.223,,Jiayuguan,,,CN,,0.0059,1562623585.0,1562677026.0,,28800.0,,"[{'id': 800, 'main': 'Clear', 'description': 'clear sky', 'icon': '01d'}]",98.859,,4.89
37,stations,30.0,200,71.97,114.09,1562640055.0,2017155.0,989.74,49.0,999.3,999.3,289.813,289.813,289.813,,Saskylakh,,,RU,,0.0089,0.0,0.0,,32400.0,,"[{'id': 802, 'main': 'Clouds', 'description': 'scattered clouds', 'icon': '03d'}]",230.111,,2.91
38,stations,100.0,200,69.7,170.27,1562640126.0,2122090.0,1015.05,68.0,1014.86,1014.86,282.243,282.243,282.243,,Pevek,,,RU,,0.0058,0.0,0.0,,43200.0,,"[{'id': 804, 'main': 'Clouds', 'description': 'overcast clouds', 'icon': '04d'}]",50.14,,3.66
39,stations,9.0,200,-34.53,20.04,1562640127.0,1015776.0,,87.0,1025.0,,284.15,284.15,284.15,,Bredasdorp,,,ZA,1966.0,0.0069,1562651169.0,1562687006.0,1.0,7200.0,,"[{'id': 800, 'main': 'Clear', 'description': 'clear sky', 'icon': '01n'}]",320.0,,1.0
40,stations,100.0,200,5.04,21.21,1562640127.0,240999.0,947.29,96.0,1013.94,1013.94,292.833,292.833,292.833,,Alindao,,,CF,,0.0054,1562646490.0,1562691123.0,,3600.0,,"[{'id': 804, 'main': 'Clouds', 'description': 'overcast clouds', 'icon': '04n'}]",343.711,,1.35
41,stations,40.0,200,38.52,-28.7,1562640026.0,3372707.0,,88.0,1022.0,,293.15,293.15,293.15,,Ribeira Grande,,,PT,6883.0,0.0074,1562654301.0,1562707271.0,1.0,0.0,10000.0,"[{'id': 802, 'main': 'Clouds', 'description': 'scattered clouds', 'icon': '03n'}]",300.0,,2.1
42,stations,0.0,200,-9.17,-60.63,1562640127.0,3665202.0,998.82,61.0,1015.34,1015.34,295.183,295.183,295.183,,Aripuana,,,BR,,0.0061,1562581142.0,1562622941.0,,-14400.0,,"[{'id': 800, 'main': 'Clear', 'description': 'clear sky', 'icon': '01n'}]",203.135,,0.71
43,stations,100.0,200,66.94,-53.67,1562640128.0,3419842.0,1010.2,79.0,1011.99,1011.99,278.643,278.643,278.643,,Sisimiut,,,GL,,0.007,0.0,0.0,,-7200.0,,"[{'id': 804, 'main': 'Clouds', 'description': 'overcast clouds', 'icon': '04d'}]",351.82,,10.82
44,stations,75.0,200,-33.93,18.42,1562639765.0,3369157.0,,100.0,1026.0,,285.34,287.59,283.71,,Cape Town,,,ZA,1899.0,0.0061,1562651470.0,1562687483.0,1.0,7200.0,10000.0,"[{'id': 803, 'main': 'Clouds', 'description': 'broken clouds', 'icon': '04n'}]",40.0,,2.6
45,stations,0.0,200,44.08,-80.2,1562640072.0,6145890.0,,75.0,1016.0,,289.84,292.04,288.15,,Shelburne,,,CA,2008040.0,0.0078,1562579139.0,1562634338.0,3.0,-14400.0,,"[{'id': 800, 'main': 'Clear', 'description': 'clear sky', 'icon': '01n'}]",38.742,,1.86
46,stations,40.0,200,15.34,74.49,1562640128.0,1273574.0,999.54,82.0,1006.98,1006.98,300.543,300.543,300.543,,Vaini,,9.438,IN,,0.0075,1562632634.0,1562679403.0,,19800.0,,"[{'id': 501, 'main': 'Rain', 'description': 'moderate rain', 'icon': '10d'}]",250.944,,4.67
47,stations,6.0,200,-0.74,-90.35,1562640056.0,3652764.0,,95.0,1015.0,,294.82,294.82,294.82,,Puerto Ayora,,,EC,2005652.0,0.0093,1562587433.0,1562630917.0,3.0,-21600.0,,"[{'id': 800, 'main': 'Clear', 'description': 'clear sky', 'icon': '01n'}]",165.0,1.34,0.45
48,stations,93.0,200,53.34,78.33,1562640129.0,1508636.0,991.18,49.0,1003.29,1003.29,296.443,296.443,296.443,,Burla,,,RU,,0.0066,1562624980.0,1562685213.0,,25200.0,,"[{'id': 804, 'main': 'Clouds', 'description': 'overcast clouds', 'icon': '04d'}]",191.883,,6.11
49,stations,0.0,200,39.42,22.43,1562640129.0,262462.0,,83.0,1011.0,,295.12,296.15,294.15,,Chara,,,GR,6629.0,0.0064,1562641863.0,1562695164.0,1.0,10800.0,10000.0,"[{'id': 800, 'main': 'Clear', 'description': 'clear sky', 'icon': '01n'}]",305.36,,0.6
50,stations,0.0,200,60.4,-1.35,1562640129.0,2654970.0,,93.0,1020.0,,280.57,281.15,280.15,,Brae,,,GB,1447.0,0.0061,1562640814.0,1562707629.0,1.0,3600.0,10000.0,"[{'id': 800, 'main': 'Clear', 'description': 'clear sky', 'icon': '01n'}]",,,1.0
51,stations,19.0,200,3.04,29.53,1562640129.0,204283.0,911.1,98.0,1014.91,1014.91,290.423,290.423,290.423,,Watsa,,,CD,,0.0059,1562644693.0,1562688926.0,,7200.0,,"[{'id': 801, 'main': 'Clouds', 'description': 'few clouds', 'icon': '02n'}]",63.658,,0.81
52,stations,90.0,200,22.08,-159.32,1562639956.0,5848280.0,,74.0,1016.0,,300.63,301.15,299.82,,Kapaa,,,US,7873.0,0.0074,1562601576.0,1562649882.0,1.0,-36000.0,14484.0,"[{'id': 804, 'main': 'Clouds', 'description': 'overcast clouds', 'icon': '04n'}]",30.0,,8.2
53,,,404,,,,,,,,,,,,city not found,,,,,,,,,,,,,,,
54,stations,1.0,200,39.95,-94.76,1562640130.0,4407665.0,,41.0,1014.0,,298.61,300.15,297.59,,Kodiak,,,US,4022.0,0.0068,1562583466.0,1562637001.0,1.0,-18000.0,16093.0,"[{'id': 800, 'main': 'Clear', 'description': 'clear sky', 'icon': '01n'}]",130.0,,3.1
55,stations,0.0,200,-33.59,26.89,1562640097.0,964432.0,,78.0,1021.0,,290.37,290.37,290.37,,Port Alfred,,,ZA,2011314.0,0.0056,1562649388.0,1562685498.0,3.0,7200.0,,"[{'id': 800, 'main': 'Clear', 'description': 'clear sky', 'icon': '01n'}]",264.0,8.05,3.58
56,stations,79.0,200,35.63,111.36,1562640130.0,1784874.0,942.79,39.0,1008.51,1008.51,299.813,299.813,299.813,,Houma,,,CN,,0.0067,1562621160.0,1562673176.0,,28800.0,,"[{'id': 803, 'main': 'Clouds', 'description': 'broken clouds', 'icon': '04d'}]",288.352,,3.93
57,stations,0.0,200,-14.83,-64.9,1562640131.0,3902377.0,997.48,71.0,1016.04,1016.04,292.023,292.023,292.023,,Trinidad,,,BO,,0.0067,1562582752.0,1562623380.0,,-14400.0,,"[{'id': 800, 'main': 'Clear', 'description': 'clear sky', 'icon': '01n'}]",314.439,,0.87
58,stations,24.0,200,-3.48,29.48,1562640131.0,425378.0,759.43,84.0,1015.14,1015.14,283.423,283.423,283.423,,Matara,,,BI,,0.0066,1562645350.0,1562688293.0,,7200.0,,"[{'id': 801, 'main': 'Clouds', 'description': 'few clouds', 'icon': '02n'}]",303.527,,0.68
59,stations,40.0,200,-8.49,140.4,1562640131.0,2082539.0,1011.82,82.0,1011.52,1011.52,298.823,298.823,298.823,,Merauke,,0.625,ID,,0.0055,1562619228.0,1562661168.0,,32400.0,,"[{'id': 500, 'main': 'Rain', 'description': 'light rain', 'icon': '10d'}]",141.32,,10.23
60,stations,98.0,200,12.49,-16.54,1562640131.0,2246901.0,1013.38,84.0,1013.7,1013.7,298.883,298.883,298.883,,Oussouye,,,SN,,0.0062,1562654789.0,1562700946.0,,0.0,,"[{'id': 804, 'main': 'Clouds', 'description': 'overcast clouds', 'icon': '04n'}]",291.482,,4.77
61,stations,20.0,200,44.65,-63.58,1562639905.0,6324729.0,,59.0,1011.0,,290.27,292.15,287.04,,Halifax,,,CA,733.0,0.0079,1562575023.0,1562630476.0,1.0,-10800.0,24140.0,"[{'id': 801, 'main': 'Clouds', 'description': 'few clouds', 'icon': '02n'}]",250.0,,2.6
62,stations,0.0,200,50.93,84.77,1562640132.0,1488190.0,853.56,46.0,1006.49,1006.49,293.363,293.363,293.363,,Ust-Kan,,,RU,,0.0084,1562624219.0,1562682882.0,,25200.0,,"[{'id': 800, 'main': 'Clear', 'description': 'clear sky', 'icon': '01d'}]",227.962,,1.59
63,,,404,,,,,,,,,,,,city not found,,,,,,,,,,,,,,,
64,,,404,,,,,,,,,,,,city not found,,,,,,,,,,,,,,,
65,stations,9.0,200,18.44,1.41,1562640132.0,2455290.0,961.05,10.0,1007.24,1007.24,306.513,306.513,306.513,,Kidal,,,ML,,0.0088,1562649834.0,1562697284.0,,0.0,,"[{'id': 800, 'main': 'Clear', 'description': 'clear sky', 'icon': '01n'}]",104.422,,6.16
66,stations,20.0,200,6.8,-58.16,1562639953.0,3378644.0,,88.0,1016.0,,299.97,301.15,298.15,,Georgetown,,,GY,8767.0,0.0077,1562578952.0,1562623945.0,1.0,-14400.0,10000.0,"[{'id': 801, 'main': 'Clouds', 'description': 'few clouds', 'icon': '02n'}]",50.0,,2.1
67,,,404,,,,,,,,,,,,city not found,,,,,,,,,,,,,,,
68,stations,100.0,200,-6.12,141.3,1562640133.0,2093846.0,1003.94,70.0,1010.76,1010.76,301.673,301.673,301.673,,Kiunga,,0.375,PG,,0.0069,1562618774.0,1562661190.0,,36000.0,,"[{'id': 500, 'main': 'Rain', 'description': 'light rain', 'icon': '10d'}]",140.326,,1.62
69,stations,75.0,200,45.53,12.3,1562640133.0,3173529.0,,88.0,1012.0,,292.65,294.82,289.82,,Dese,,,IT,6779.0,0.0085,1562643047.0,1562698843.0,1.0,7200.0,10000.0,"[{'id': 803, 'main': 'Clouds', 'description': 'broken clouds', 'icon': '04n'}]",40.0,,4.6
70,stations,100.0,200,13.21,18.34,1562640134.0,2436400.0,976.97,67.0,1013.83,1013.83,297.623,297.623,297.623,,Ati,,5.438,TD,,0.0089,1562646340.0,1562692650.0,,3600.0,,"[{'id': 501, 'main': 'Rain', 'description': 'moderate rain', 'icon': '10n'}]",234.833,,6.36
71,stations,40.0,200,-7.06,-36.37,1562640134.0,3387258.0,,83.0,1020.0,,294.15,294.15,294.15,,Soledade,,,BR,8392.0,0.008,1562575106.0,1562617330.0,1.0,-10800.0,10000.0,"[{'id': 802, 'main': 'Clouds', 'description': 'scattered clouds', 'icon': '03n'}]",170.0,,5.1
72,,,404,,,,,,,,,,,,city not found,,,,,,,,,,,,,,,
73,,,404,,,,,,,,,,,,city not found,,,,,,,,,,,,,,,
74,stations,20.0,200,-18.17,49.38,1562640134.0,1053384.0,,100.0,1017.0,,292.15,292.15,292.15,,Toamasina,,,MG,2139.0,0.007,1562642083.0,1562682007.0,1.0,10800.0,10000.0,"[{'id': 801, 'main': 'Clouds', 'description': 'few clouds', 'icon': '02n'}]",277.467,,0.98
75,stations,100.0,200,65.28,-126.83,1562640135.0,6089245.0,978.3,52.0,1017.33,1017.33,287.803,287.803,287.803,,Norman Wells,,,CA,,0.0066,1562579687.0,1562656175.0,,-21600.0,,"[{'id': 804, 'main': 'Clouds', 'description': 'overcast clouds', 'icon': '04n'}]",358.684,,0.83
76,,,404,,,,,,,,,,,,city not found,,,,,,,,,,,,,,,
77,stations,4.0,200,46.45,135.83,1562640135.0,2013279.0,962.63,71.0,1010.5,1010.5,300.323,300.323,300.323,,Vostok,,1.625,RU,,0.0067,1562613167.0,1562669423.0,,36000.0,,"[{'id': 500, 'main': 'Rain', 'description': 'light rain', 'icon': '10d'}]",260.962,,0.91
78,stations,55.0,200,48.03,28.7,1562640135.0,618453.0,,86.0,1010.0,,283.15,283.15,283.15,,Kamenka,,,MD,2012853.0,0.0058,1562638498.0,1562695520.0,3.0,10800.0,,"[{'id': 803, 'main': 'Clouds', 'description': 'broken clouds', 'icon': '04d'}]",271.756,,1.86
79,stations,0.0,200,43.26,-79.87,1562640006.0,5969785.0,,79.0,1017.0,,291.23,292.59,289.82,,Hamilton,,,CA,2010676.0,0.0083,1562579236.0,1562634083.0,3.0,-14400.0,,"[{'id': 800, 'main': 'Clear', 'description': 'clear sky', 'icon': '01n'}]",20.882,,1.38
80,stations,99.0,200,71.64,128.87,1562640136.0,2015306.0,990.25,77.0,1001.64,1001.64,287.923,287.923,287.923,,Tiksi,,0.312,RU,,0.0086,0.0,0.0,,32400.0,,"[{'id': 500, 'main': 'Rain', 'description': 'light rain', 'icon': '10d'}]",330.858,,2.3
81,stations,80.0,200,4.42,-7.36,1562640136.0,2281120.0,1012.04,91.0,1015.09,1015.09,295.293,295.293,295.293,,Tabou,,,CI,,0.0078,1562653410.0,1562697918.0,,0.0,,"[{'id': 803, 'main': 'Clouds', 'description': 'broken clouds', 'icon': '04n'}]",242.142,,1.53
82,stations,75.0,200,17.65,83.27,1562640136.0,1252783.0,,79.0,1003.0,,302.15,302.15,302.15,,Yarada,,,IN,9255.0,0.0087,1562630272.0,1562677549.0,1.0,19800.0,6000.0,"[{'id': 803, 'main': 'Clouds', 'description': 'broken clouds', 'icon': '04d'}]",250.0,,3.1
83,stations,100.0,200,60.91,-46.05,1562640136.0,3421719.0,,23.0,1011.0,,289.15,289.15,289.15,,Narsaq,,,GL,47.0,0.0089,1562651218.0,1562718683.0,1.0,-7200.0,,"[{'id': 804, 'main': 'Clouds', 'description': 'overcast clouds', 'icon': '04n'}]",70.0,,9.8
84,,,404,,,,,,,,,,,,city not found,,,,,,,,,,,,,,,
85,stations,100.0,200,70.47,-68.59,1562640137.0,5924351.0,987.46,48.0,1019.92,1019.92,285.333,285.333,285.333,,Clyde River,,,CA,,0.0054,0.0,0.0,,-14400.0,,"[{'id': 804, 'main': 'Clouds', 'description': 'overcast clouds', 'icon': '04d'}]",183.114,,2.93
86,stations,90.0,200,16.86,-99.88,1562640137.0,3533462.0,,83.0,1013.0,,302.15,302.15,302.15,,Acapulco,,,MX,7103.0,0.0091,1562587906.0,1562635018.0,1.0,-18000.0,9656.0,"[{'id': 804, 'main': 'Clouds', 'description': 'overcast clouds', 'icon': '04n'}]",190.0,,1.5
87,stations,9.0,200,46.68,113.28,1562640137.0,2032614.0,885.69,41.0,1007.73,1007.73,297.493,297.493,297.493,,Baruun-Urt,,,MN,,0.0063,1562618526.0,1562674889.0,,28800.0,,"[{'id': 800, 'main': 'Clear', 'description': 'clear sky', 'icon': '01d'}]",83.169,,3.51
88,stations,89.0,200,77.48,-69.36,1562640138.0,3831208.0,981.69,86.0,1020.23,1020.23,277.033,277.033,277.033,,Qaanaaq,,,GL,,0.0085,0.0,0.0,,-10800.0,,"[{'id': 804, 'main': 'Clouds', 'description': 'overcast clouds', 'icon': '04d'}]",256.627,,1.61
89,stations,100.0,200,73.51,80.55,1562640138.0,1507390.0,1003.51,96.0,1003.97,1003.97,273.133,273.133,273.133,,Dikson,,,RU,,0.0081,0.0,0.0,,25200.0,,"[{'id': 804, 'main': 'Clouds', 'description': 'overcast clouds', 'icon': '04d'}]",7.589,,5.69
90,stations,92.0,200,-33.64,115.35,1562640138.0,2075265.0,,62.0,1017.0,,288.38,289.82,287.04,,Busselton,,0.062,AU,2011706.0,0.0068,1562628168.0,1562664253.0,3.0,28800.0,,"[{'id': 804, 'main': 'Clouds', 'description': 'overcast clouds', 'icon': '04d'}]",253.378,,7.6
91,stations,67.0,200,10.38,-9.3,1562640138.0,2419992.0,966.26,94.0,1014.51,1014.51,294.733,294.733,294.733,,Kankan,,,GN,,0.0072,1562653271.0,1562698988.0,,0.0,,"[{'id': 803, 'main': 'Clouds', 'description': 'broken clouds', 'icon': '04n'}]",229.164,,3.37
92,stations,40.0,200,-5.2,-35.46,1562640139.0,3386213.0,,94.0,1017.0,,296.15,296.15,296.15,,Touros,,,BR,8452.0,0.0064,1562574702.0,1562617298.0,1.0,-10800.0,10000.0,"[{'id': 802, 'main': 'Clouds', 'description': 'scattered clouds', 'icon': '03n'}]",220.0,,1.5
93,stations,40.0,200,-20.34,57.76,1562640139.0,1106677.0,,94.0,1019.0,,293.46,293.71,293.15,,Bambous Virieux,,,MU,2061.0,0.0091,1562640312.0,1562679755.0,1.0,14400.0,10000.0,"[{'id': 802, 'main': 'Clouds', 'description': 'scattered clouds', 'icon': '03n'}]",320.0,,2.6
94,stations,20.0,200,14.25,-87.96,1562640017.0,3602137.0,,83.0,1016.0,,298.15,298.15,298.15,,San Jose,,,HN,7095.0,0.007,1562585329.0,1562631873.0,1.0,-21600.0,10000.0,"[{'id': 801, 'main': 'Clouds', 'description': 'few clouds', 'icon': '02n'}]",340.0,,4.6
95,stations,100.0,200,7.35,80.68,1562640139.0,1241622.0,975.72,61.0,1009.97,1009.97,301.323,301.323,301.323,,Wattegama,,,LK,,0.0067,1562631982.0,1562677082.0,,19800.0,,"[{'id': 804, 'main': 'Clouds', 'description': 'overcast clouds', 'icon': '04d'}]",217.366,,2.47
96,stations,3.0,200,3.38,-59.8,1562640140.0,3379316.0,1004.26,73.0,1015.09,1015.09,299.143,299.143,299.143,,Lethem,,,GY,,0.0062,1562579690.0,1562623994.0,,-14400.0,,"[{'id': 800, 'main': 'Clear', 'description': 'clear sky', 'icon': '01n'}]",109.976,,0.68
97,stations,96.0,200,-38.31,-60.23,1562640140.0,3833859.0,1006.98,72.0,1018.9,1018.9,281.653,281.653,281.653,,Barrow,,,AR,,0.0062,1562584637.0,1562619254.0,,-10800.0,,"[{'id': 804, 'main': 'Clouds', 'description': 'overcast clouds', 'icon': '04n'}]",337.029,,5.56
98,stations,1.0,200,39.31,-74.98,1562640140.0,4501427.0,,93.0,1017.0,,293.1,294.82,291.48,,Port Elizabeth,,,US,4902.0,0.0095,1562578834.0,1562632137.0,1.0,-14400.0,16093.0,"[{'id': 800, 'main': 'Clear', 'description': 'clear sky', 'icon': '01n'}]",112.325,,1.48
99,stations,90.0,200,8.96,38.73,1562640140.0,344979.0,,87.0,1027.0,,287.15,287.15,287.15,,Lebu,,,ET,2453.0,0.0082,1562641888.0,1562687314.0,1.0,10800.0,,"[{'id': 300, 'main': 'Drizzle', 'description': 'light intensity drizzle', 'icon': '09n'}]",30.0,,3.1
100,stations,90.0,200,46.23,-63.13,1562640061.0,5920288.0,,70.0,1009.0,,290.31,292.59,289.26,,Charlottetown,,0.375,CA,19059.0,0.0067,1562574549.0,1562630734.0,3.0,-10800.0,,"[{'id': 500, 'main': 'Rain', 'description': 'light rain', 'icon': '10n'}]",274.619,,7.41
101,,,404,,,,,,,,,,,,city not found,,,,,,,,,,,,,,,
102,stations,0.0,200,32.93,12.08,1562640141.0,2208425.0,1012.55,38.0,1013.03,1013.03,302.243,302.243,302.243,,Zuwarah,,,LY,,0.0065,1562645416.0,1562696580.0,,7200.0,,"[{'id': 800, 'main': 'Clear', 'description': 'clear sky', 'icon': '01n'}]",178.301,,3.75
103,stations,40.0,200,13.22,-59.52,1562640141.0,3374083.0,,78.0,1017.0,,301.15,301.15,301.15,,Bathsheba,,,BB,8772.0,0.011,1562578613.0,1562624937.0,1.0,-14400.0,10000.0,"[{'id': 802, 'main': 'Clouds', 'description': 'scattered clouds', 'icon': '03n'}]",100.0,,9.3
104,stations,42.0,200,-10.07,-78.15,1562640142.0,3939168.0,1014.73,90.0,1016.59,1016.59,290.143,290.143,290.143,,Huarmey,,,PE,,0.006,1562585439.0,1562627054.0,,-18000.0,,"[{'id': 802, 'main': 'Clouds', 'description': 'scattered clouds', 'icon': '03n'}]",162.176,,8.01
105,stations,100.0,200,7.53,-12.5,1562640142.0,2409914.0,1014.34,84.0,1014.87,1014.87,297.033,297.033,297.033,,Bonthe,,,SL,,0.0062,1562654331.0,1562699465.0,,0.0,,"[{'id': 804, 'main': 'Clouds', 'description': 'overcast clouds', 'icon': '04n'}]",238.979,,4.82
106,stations,0.0,200,-30.97,22.13,1562640142.0,1014034.0,879.16,82.0,1026.89,1026.89,279.233,279.233,279.233,,Carnarvon,,,ZA,,0.0061,1562650164.0,1562687008.0,,7200.0,,"[{'id': 800, 'main': 'Clear', 'description': 'clear sky', 'icon': '01n'}]",291.018,,0.86
107,stations,5.0,200,23.45,-110.23,1562640142.0,3981432.0,,28.0,1011.0,,301.28,305.15,298.15,,Todos Santos,,,MX,7165.0,0.0069,1562589626.0,1562638267.0,1.0,-21600.0,16093.0,"[{'id': 800, 'main': 'Clear', 'description': 'clear sky', 'icon': '01n'}]",140.0,,2.6
108,stations,100.0,200,-0.87,134.08,1562639885.0,1636308.0,963.42,83.0,1009.89,1009.89,298.333,298.333,298.333,,Manokwari,,2.25,ID,,0.0065,1562619986.0,1562663444.0,,32400.0,,"[{'id': 500, 'main': 'Rain', 'description': 'light rain', 'icon': '10d'}]",78.281,,1.76
109,,,404,,,,,,,,,,,,city not found,,,,,,,,,,,,,,,
110,stations,100.0,200,14.6,-91.73,1562640143.0,3597587.0,1010.14,93.0,1015.04,1015.04,297.523,297.523,297.523,,El Asintal,,0.938,GT,,0.0077,1562586197.0,1562632815.0,,-21600.0,,"[{'id': 500, 'main': 'Rain', 'description': 'light rain', 'icon': '10n'}]",322.032,,1.72
111,stations,0.0,200,-23.87,35.38,1562640143.0,1045114.0,1011.27,94.0,1022.65,1022.65,288.133,288.133,288.133,,Inhambane,,,MZ,,0.0099,1562646089.0,1562684722.0,,7200.0,,"[{'id': 800, 'main': 'Clear', 'description': 'clear sky', 'icon': '01n'}]",179.938,,0.92
112,stations,1.0,200,29.21,-99.79,1562640143.0,4738721.0,,58.0,1009.0,,303.72,305.37,300.93,,Uvalde,,,US,5989.0,0.0058,1562586376.0,1562636505.0,1.0,-18000.0,16093.0,"[{'id': 800, 'main': 'Clear', 'description': 'clear sky', 'icon': '01n'}]",340.0,,1.5
113,stations,100.0,200,5.38,-52.96,1562640144.0,3380290.0,1015.11,80.0,1015.8,1015.8,300.153,300.153,300.153,,Sinnamary,,1.375,GF,,0.0068,1562577847.0,1562622553.0,,-10800.0,,"[{'id': 500, 'main': 'Rain', 'description': 'light rain', 'icon': '10n'}]",102.246,,4.73
114,stations,75.0,200,50.03,-100.23,1562640144.0,6122707.0,,65.0,1006.0,,299.15,299.15,299.15,,Rivers,,,CA,750.0,0.006,1562582459.0,1562640633.0,1.0,-18000.0,24140.0,"[{'id': 803, 'main': 'Clouds', 'description': 'broken clouds', 'icon': '04n'}]",330.0,,2.6
115,stations,0.0,200,38.04,14.02,1562640144.0,2525041.0,,49.0,1012.0,,299.73,300.93,297.59,,Cefalu,,,IT,2010973.0,0.0088,1562644128.0,1562696937.0,3.0,7200.0,,"[{'id': 800, 'main': 'Clear', 'description': 'clear sky', 'icon': '01n'}]",180.0,1.79,0.45
116,stations,99.0,200,21.47,76.4,1562640145.0,1261517.0,940.87,78.0,1002.89,1002.89,298.973,298.973,298.973,,Nepa Nagar,,,IN,,0.009,1562631484.0,1562679636.0,,19800.0,,"[{'id': 804, 'main': 'Clouds', 'description': 'overcast clouds', 'icon': '04d'}]",251.186,,4.79
117,,,404,,,,,,,,,,,,city not found,,,,,,,,,,,,,,,
118,,,404,,,,,,,,,,,,city not found,,,,,,,,,,,,,,,
119,stations,0.0,200,36.69,52.52,1562640145.0,134602.0,,88.0,1003.0,,296.02,297.15,295.15,,Fereydun Kenar,,,IR,7490.0,0.0089,1562635114.0,1562687469.0,1.0,16200.0,10000.0,"[{'id': 800, 'main': 'Clear', 'description': 'clear sky', 'icon': '01d'}]",150.0,,1.0
120,stations,20.0,200,18.49,-71.85,1562640146.0,3504077.0,,58.0,1016.0,,302.15,302.15,302.15,,Jimani,,,DO,7213.0,0.0085,1562580995.0,1562628474.0,1.0,-14400.0,8000.0,"[{'id': 801, 'main': 'Clouds', 'description': 'few clouds', 'icon': '02n'}]",110.0,,5.1
121,stations,72.0,200,53.05,90.92,1562640146.0,1510131.0,951.78,64.0,1007.49,1007.49,293.713,293.713,293.713,,Beya,,,RU,,0.0084,1562622057.0,1562682092.0,,25200.0,,"[{'id': 803, 'main': 'Clouds', 'description': 'broken clouds', 'icon': '04d'}]",290.114,,1.53
122,stations,20.0,200,17.88,-76.41,1562640146.0,3489440.0,,65.0,1015.0,,301.15,301.15,301.15,,Morant Bay,,,JM,7105.0,0.0083,1562582159.0,1562629499.0,1.0,-18000.0,10000.0,"[{'id': 801, 'main': 'Clouds', 'description': 'few clouds', 'icon': '02n'}]",350.0,,5.1
123,stations,21.0,200,14.9,-24.5,1562640146.0,3374210.0,1016.81,83.0,1016.79,1016.79,295.623,295.623,295.623,,Sao Filipe,,,CV,,0.0086,1562656444.0,1562703112.0,,-3600.0,,"[{'id': 801, 'main': 'Clouds', 'description': 'few clouds', 'icon': '02n'}]",31.693,,7.33
124,stations,93.0,200,47.7,142.03,1562640147.0,2120530.0,1015.37,80.0,1016.39,1016.39,285.233,285.233,285.233,,Urozhaynoye,,,RU,,0.0076,1562611368.0,1562668246.0,,39600.0,,"[{'id': 804, 'main': 'Clouds', 'description': 'overcast clouds', 'icon': '04d'}]",89.203,,9.13
125,stations,1.0,200,4.06,38.32,1562640147.0,331259.0,909.8,72.0,1015.54,1015.54,293.303,293.303,293.303,,Mega,,,ET,,0.0056,1562642481.0,1562686918.0,,10800.0,,"[{'id': 800, 'main': 'Clear', 'description': 'clear sky', 'icon': '01n'}]",124.657,,7.51
126,stations,97.0,200,4.75,-6.64,1562640147.0,2282006.0,998.3,96.0,1015.2,1015.2,293.963,293.963,293.963,,San-Pedro,,,CI,,0.008,1562653204.0,1562697778.0,,0.0,,"[{'id': 804, 'main': 'Clouds', 'description': 'overcast clouds', 'icon': '04n'}]",220.852,,1.11
127,,,404,,,,,,,,,,,,city not found,,,,,,,,,,,,,,,
128,stations,42.0,200,-45.75,170.57,1562640147.0,2179825.0,,51.0,1003.0,,285.37,285.37,285.37,,Waitati,,,NZ,75281.0,0.0077,1562617040.0,1562648873.0,3.0,43200.0,,"[{'id': 802, 'main': 'Clouds', 'description': 'scattered clouds', 'icon': '03d'}]",248.0,4.92,3.13
129,stations,54.0,200,-30.17,-50.22,1562640065.0,3466165.0,1024.15,88.0,1024.96,1024.96,283.313,283.313,283.313,,Cidreira,,,BR,,0.0063,1562581029.0,1562618057.0,,-10800.0,,"[{'id': 803, 'main': 'Clouds', 'description': 'broken clouds', 'icon': '04n'}]",3.017,,1.35
130,stations,100.0,200,20.39,78.13,1562640148.0,1252770.0,965.72,80.0,1002.98,1002.98,298.933,298.933,298.933,,Yavatmal,,,IN,,0.0074,1562631194.0,1562679094.0,,19800.0,,"[{'id': 804, 'main': 'Clouds', 'description': 'overcast clouds', 'icon': '04d'}]",241.442,,4.46
131,stations,90.0,200,-42.48,-73.76,1562640148.0,3896218.0,,100.0,1012.0,,283.15,283.15,283.15,,Castro,,,CL,8512.0,0.0066,1562588623.0,1562621762.0,1.0,-14400.0,10000.0,"[{'id': 520, 'main': 'Rain', 'description': 'light intensity shower rain', 'icon': '09n'}]",20.0,,6.2
132,stations,44.0,200,9.49,50.81,1562640148.0,64814.0,975.8,61.0,1008.4,1008.4,299.873,299.873,299.873,,Bandarbeyla,,,SO,,0.0066,1562638934.0,1562684470.0,,10800.0,,"[{'id': 802, 'main': 'Clouds', 'description': 'scattered clouds', 'icon': '03d'}]",220.996,,12.19
133,stations,75.0,200,69.49,88.39,1562640149.0,1490256.0,,81.0,993.0,,282.15,282.15,282.15,,Talnakh,,,RU,8951.0,0.0064,0.0,0.0,1.0,25200.0,10000.0,"[{'id': 803, 'main': 'Clouds', 'description': 'broken clouds', 'icon': '04d'}]",10.0,,11.0
134,,,404,,,,,,,,,,,,city not found,,,,,,,,,,,,,,,
135,stations,0.0,200,47.66,-52.73,1562640149.0,6167817.0,,62.0,1005.0,,288.3,289.26,287.59,,Torbay,,,CA,2004771.0,0.0071,1562658147.0,1562714960.0,3.0,-9000.0,,"[{'id': 800, 'main': 'Clear', 'description': 'clear sky', 'icon': '01n'}]",244.435,,8.79
136,stations,100.0,200,9.92,-68.31,1562640149.0,3626219.0,922.22,97.0,1015.61,1015.61,292.313,292.313,292.313,,Tinaquillo,,3.812,VE,,0.0057,1562581069.0,1562626701.0,,-14400.0,,"[{'id': 501, 'main': 'Rain', 'description': 'moderate rain', 'icon': '10n'}]",82.635,,0.45
137,stations,46.0,200,-3.28,-39.27,1562640150.0,3386177.0,996.47,93.0,1016.68,1016.68,294.753,294.753,294.753,,Trairi,,,BR,,0.007,1562575425.0,1562618404.0,,-10800.0,,"[{'id': 802, 'main': 'Clouds', 'description': 'scattered clouds', 'icon': '03n'}]",160.457,,2.13
138,stations,14.0,200,37.17,-99.65,1562640150.0,4267710.0,,77.0,1006.0,,299.82,299.82,299.82,,Sitka,,,US,2005167.0,0.0054,1562585134.0,1562637681.0,3.0,-18000.0,,"[{'id': 801, 'main': 'Clouds', 'description': 'few clouds', 'icon': '02n'}]",129.0,4.47,2.68
139,stations,16.0,200,67.67,12.69,1562640150.0,3137469.0,1017.11,67.0,1017.16,1017.16,285.853,285.853,285.853,,Sorland,,,NO,,0.0063,0.0,0.0,,7200.0,,"[{'id': 801, 'main': 'Clouds', 'description': 'few clouds', 'icon': '02d'}]",14.239,,3.22
140,stations,100.0,200,69.44,-133.03,1562640150.0,6170031.0,1020.28,89.0,1019.99,1019.99,276.583,276.583,276.583,,Tuktoyaktuk,,,CA,,0.0075,0.0,0.0,,-21600.0,,"[{'id': 804, 'main': 'Clouds', 'description': 'overcast clouds', 'icon': '04d'}]",46.528,,5.94
141,stations,84.0,200,65.32,21.48,1562640151.0,603570.0,,81.0,1015.0,,282.4,284.15,280.93,,Pitea,,,SE,1775.0,0.0059,1562630549.0,1562706934.0,1.0,7200.0,10000.0,"[{'id': 803, 'main': 'Clouds', 'description': 'broken clouds', 'icon': '04d'}]",100.0,,1.0
142,,,404,,,,,,,,,,,,city not found,,,,,,,,,,,,,,,
143,stations,90.0,200,-29.95,-71.34,1562640151.0,3893629.0,,81.0,1019.0,,285.28,285.37,285.15,,Coquimbo,,,CL,8514.0,0.0069,1562586067.0,1562623156.0,1.0,-14400.0,10000.0,"[{'id': 804, 'main': 'Clouds', 'description': 'overcast clouds', 'icon': '04n'}]",,,1.0
144,stations,75.0,200,42.77,-9.06,1562640151.0,3115824.0,,93.0,1018.0,,289.55,292.04,287.59,,Muros,,,ES,6434.0,0.0064,1562648777.0,1562703367.0,1.0,7200.0,7000.0,"[{'id': 803, 'main': 'Clouds', 'description': 'broken clouds', 'icon': '04n'}]",30.0,,3.6
145,stations,61.0,200,-10.62,150.67,1562640151.0,2132606.0,997.27,81.0,1011.77,1011.77,298.133,298.133,298.133,,Samarai,,0.688,PG,,0.0059,1562616979.0,1562658487.0,,36000.0,,"[{'id': 500, 'main': 'Rain', 'description': 'light rain', 'icon': '10d'}]",149.404,,4.38
146,stations,0.0,200,32.12,20.07,1562640131.0,88319.0,1010.98,73.0,1012.86,1012.86,298.923,298.923,298.923,,Benghazi,,,LY,,0.006,1562643617.0,1562694543.0,,7200.0,,"[{'id': 800, 'main': 'Clear', 'description': 'clear sky', 'icon': '01n'}]",329.183,,2.42
147,stations,23.0,200,49.72,-86.95,1562640045.0,5960603.0,972.74,60.0,1013.03,1013.03,291.253,291.253,291.253,,Geraldton,,,CA,,0.0067,1562579359.0,1562637358.0,,-14400.0,,"[{'id': 801, 'main': 'Clouds', 'description': 'few clouds', 'icon': '02n'}]",195.411,,3.87
148,stations,37.0,200,7.99,117.06,1562640152.0,1728675.0,1007.8,59.0,1010.53,1010.53,303.883,303.883,303.883,,Balabac,,,PH,,0.0071,1562623185.0,1562668415.0,,28800.0,,"[{'id': 802, 'main': 'Clouds', 'description': 'scattered clouds', 'icon': '03d'}]",168.102,,2.14
149,stations,100.0,200,-3.66,152.44,1562640152.0,2090021.0,986.01,82.0,1008.35,1008.35,298.923,298.923,298.923,,Namatanai,,1.688,PG,,0.0086,1562615855.0,1562658761.0,,36000.0,,"[{'id': 500, 'main': 'Rain', 'description': 'light rain', 'icon': '10d'}]",129.015,,8.33
150,stations,8.0,200,-7.28,-76.8,1562640153.0,3696267.0,873.59,97.0,1020.4,1020.4,287.873,287.873,287.873,,Huicungo,,0.625,PE,,0.0066,1562584832.0,1562627013.0,,-18000.0,,"[{'id': 500, 'main': 'Rain', 'description': 'light rain', 'icon': '10n'}]",228.655,,1.73
151,stations,100.0,200,55.93,158.7,1562640153.0,2125711.0,895.96,65.0,1010.34,1010.34,284.163,284.163,284.163,,Esso,,0.375,RU,,0.0051,1562604678.0,1562666933.0,,43200.0,,"[{'id': 500, 'main': 'Rain', 'description': 'light rain', 'icon': '10d'}]",72.079,,2.82
152,stations,17.0,200,-0.6,73.08,1562640153.0,1282256.0,1010.18,80.0,1010.3,1010.3,301.713,301.713,301.713,,Hithadhoo,,,MV,,0.0058,1562634600.0,1562678113.0,,18000.0,,"[{'id': 801, 'main': 'Clouds', 'description': 'few clouds', 'icon': '02d'}]",139.107,,7.23
153,stations,62.0,200,12.18,125.51,1562640153.0,1688696.0,1008.47,72.0,1009.75,1009.75,302.513,302.513,302.513,,San Policarpo,,0.438,PH,,0.0062,1562620723.0,1562666820.0,,28800.0,,"[{'id': 500, 'main': 'Rain', 'description': 'light rain', 'icon': '10d'}]",125.657,,3.13
154,stations,54.0,200,-33.02,27.91,1562640034.0,1006984.0,987.32,66.0,1023.69,1023.69,285.243,285.243,285.243,,East London,,,ZA,,0.013,1562649061.0,1562685335.0,,7200.0,,"[{'id': 803, 'main': 'Clouds', 'description': 'broken clouds', 'icon': '04n'}]",274.597,,2.71
155,stations,0.0,200,27.97,-114.04,1562640154.0,4021858.0,1014.98,83.0,1014.68,1014.68,291.733,291.733,291.733,,Guerrero Negro,,,MX,,0.0056,1562589965.0,1562639757.0,,-21600.0,,"[{'id': 800, 'main': 'Clear', 'description': 'clear sky', 'icon': '01n'}]",321.184,,5.57
156,,,404,,,,,,,,,,,,city not found,,,,,,,,,,,,,,,
157,,,404,,,,,,,,,,,,city not found,,,,,,,,,,,,,,,
158,stations,73.0,200,62.45,-114.38,1562640154.0,6185377.0,,62.0,1014.0,,283.71,283.71,283.71,,Yellowknife,,,CA,47671.0,0.0062,1562579959.0,1562649927.0,3.0,-21600.0,,"[{'id': 803, 'main': 'Clouds', 'description': 'broken clouds', 'icon': '04n'}]",310.0,8.94,6.71
159,stations,0.0,200,27.18,31.19,1562640154.0,359783.0,,44.0,1011.0,,299.15,299.15,299.15,,Asyut,,,EG,2510.0,0.0066,1562641630.0,1562691192.0,1.0,7200.0,10000.0,"[{'id': 800, 'main': 'Clear', 'description': 'clear sky', 'icon': '01n'}]",360.0,,4.1
160,stations,20.0,200,57.51,12.69,1562640155.0,2700839.0,,93.0,1011.0,,285.98,288.71,284.26,,Kinna,,,SE,1746.0,0.0082,1562639039.0,1562702664.0,1.0,7200.0,10000.0,"[{'id': 801, 'main': 'Clouds', 'description': 'few clouds', 'icon': '02d'}]",290.0,,3.1
161,stations,98.0,200,-46.43,-67.52,1562640155.0,3863379.0,976.28,76.0,1010.56,1010.56,279.303,279.303,279.303,,Mar del Plata,,,AR,,0.0064,1562587940.0,1562619450.0,,-10800.0,,"[{'id': 804, 'main': 'Clouds', 'description': 'overcast clouds', 'icon': '04n'}]",348.425,,2.04
162,stations,100.0,200,12.18,6.51,1562640155.0,2339937.0,959.51,85.0,1013.83,1013.83,295.513,295.513,295.513,,Auki,,,NG,,0.0062,1562649289.0,1562695381.0,,3600.0,,"[{'id': 804, 'main': 'Clouds', 'description': 'overcast clouds', 'icon': '04n'}]",198.218,,3.84
163,stations,0.0,200,-33.85,151.22,1562640137.0,2147714.0,,48.0,1019.0,,289.33,291.48,287.59,,Sydney,,,AU,9600.0,0.0096,1562619591.0,1562655611.0,1.0,36000.0,10000.0,"[{'id': 800, 'main': 'Clear', 'description': 'clear sky', 'icon': '01d'}]",270.0,,5.7
164,stations,1.0,200,-8.93,125.41,1562640156.0,1651810.0,978.31,53.0,1014.11,1014.11,301.583,301.583,301.583,,Airai,,,TL,,0.0088,1562622870.0,1562664722.0,,32400.0,,"[{'id': 800, 'main': 'Clear', 'description': 'clear sky', 'icon': '01d'}]",317.016,,1.57
165,stations,96.0,200,61.35,16.39,1562640156.0,2720679.0,983.99,94.0,1013.05,1013.05,280.563,280.563,280.563,,Bollnas,,,SE,,0.0064,1562635906.0,1562704020.0,,7200.0,,"[{'id': 804, 'main': 'Clouds', 'description': 'overcast clouds', 'icon': '04d'}]",357.005,,2.66
166,stations,100.0,200,71.98,102.47,1562640156.0,2022572.0,992.98,71.0,995.95,995.95,284.993,284.993,284.993,,Khatanga,,,RU,,0.0078,0.0,0.0,,25200.0,,"[{'id': 804, 'main': 'Clouds', 'description': 'overcast clouds', 'icon': '04d'}]",55.478,,4.57
167,stations,0.0,200,-24.93,-65.37,1562640156.0,3838233.0,,81.0,1018.0,,280.58,281.15,280.15,,Humaita,,,AR,8267.0,0.0056,1562583999.0,1562622359.0,1.0,-10800.0,10000.0,"[{'id': 800, 'main': 'Clear', 'description': 'clear sky', 'icon': '01n'}]",230.0,,1.5
168,stations,100.0,200,-46.28,169.85,1562640157.0,2208248.0,,54.0,1001.0,,283.71,283.71,283.71,,Kaitangata,,0.5,NZ,2000217.0,0.0067,1562617328.0,1562648930.0,3.0,43200.0,,"[{'id': 500, 'main': 'Rain', 'description': 'light rain', 'icon': '10d'}]",270.0,10.73,6.26
169,stations,0.0,200,45.77,126.62,1562640157.0,2037013.0,,66.0,1008.0,,303.15,303.15,303.15,,Harbin,,,CN,9678.0,0.0056,1562615540.0,1562671471.0,1.0,28800.0,10000.0,"[{'id': 800, 'main': 'Clear', 'description': 'clear sky', 'icon': '01d'}]",50.0,,2.0
170,stations,0.0,200,37.14,-8.45,1562640157.0,2267254.0,,82.0,1016.0,,291.26,291.48,290.93,,Lagoa,,,PT,6892.0,0.0074,1562649677.0,1562702174.0,1.0,3600.0,10000.0,"[{'id': 800, 'main': 'Clear', 'description': 'clear sky', 'icon': '01n'}]",270.0,,3.1
171,stations,0.0,200,47.58,-53.28,1562640158.0,5895424.0,,68.0,1006.0,,288.3,289.26,287.59,,Bay Roberts,,,CA,2003936.0,0.0112,1562658300.0,1562715072.0,3.0,-9000.0,,"[{'id': 800, 'main': 'Clear', 'description': 'clear sky', 'icon': '01n'}]",234.38,,4.54
172,stations,0.0,200,34.92,32.53,1562640158.0,146639.0,,88.0,1006.0,,295.27,297.15,294.15,,Lasa,,,CY,6374.0,0.0083,1562640200.0,1562691979.0,1.0,10800.0,10000.0,"[{'id': 800, 'main': 'Clear', 'description': 'clear sky', 'icon': '01n'}]",360.0,,2.1
173,stations,0.0,200,36.54,61.16,1562640158.0,1159716.0,,50.0,1003.0,,299.15,299.15,299.15,,Sarakhs,,,TM,7484.0,0.0066,1562633064.0,1562685371.0,1.0,16200.0,10000.0,"[{'id': 800, 'main': 'Clear', 'description': 'clear sky', 'icon': '01d'}]",360.0,,5.1
174,stations,0.0,200,-16.02,-48.01,1562640158.0,3462672.0,,72.0,1025.0,,289.27,291.15,287.59,,Santa Maria,,,BR,8336.0,0.0067,1562578825.0,1562619199.0,1.0,-10800.0,10000.0,"[{'id': 800, 'main': 'Clear', 'description': 'clear sky', 'icon': '01n'}]",100.0,,2.6
175,stations,37.0,200,-23.13,150.74,1562640083.0,2142316.0,,50.0,1019.0,,297.15,297.15,297.15,,Yeppoon,,,AU,9499.0,0.0067,1562618317.0,1562657115.0,1.0,36000.0,10000.0,"[{'id': 802, 'main': 'Clouds', 'description': 'scattered clouds', 'icon': '03d'}]",70.0,,2.6
176,stations,0.0,200,-23.46,-56.74,1562640159.0,3436880.0,1001.13,76.0,1019.47,1019.47,285.693,285.693,285.693,,Tacuati,,,PY,,0.006,1562581753.0,1562620462.0,,-14400.0,,"[{'id': 800, 'main': 'Clear', 'description': 'clear sky', 'icon': '01n'}]",78.468,,2.74
177,stations,20.0,200,43.19,140.77,1562640159.0,2129218.0,,57.0,1011.0,,298.21,298.71,297.15,,Yoichi,,,JP,7980.0,0.0066,1562612713.0,1562667505.0,1.0,32400.0,10000.0,"[{'id': 801, 'main': 'Clouds', 'description': 'few clouds', 'icon': '02d'}]",120.0,,3.6
178,stations,75.0,200,70.86,29.09,1562640159.0,780687.0,1017.5,81.0,1018.16,1018.16,280.693,280.693,280.693,,Berlevag,,,NO,,0.0068,0.0,0.0,,7200.0,,"[{'id': 803, 'main': 'Clouds', 'description': 'broken clouds', 'icon': '04d'}]",316.248,,3.83
179,stations,0.0,200,-36.62,-64.29,1562640159.0,3835994.0,992.55,79.0,1018.2,1018.2,280.333,280.333,280.333,,Santa Rosa,,,AR,,0.0074,1562585338.0,1562620501.0,,-10800.0,,"[{'id': 800, 'main': 'Clear', 'description': 'clear sky', 'icon': '01n'}]",50.131,,3.12
180,stations,40.0,200,7.47,80.04,1562640160.0,1238427.0,,88.0,1010.0,,300.15,300.15,300.15,,Kuliyapitiya,,,LK,9098.0,0.0073,1562632124.0,1562677248.0,1.0,19800.0,10000.0,"[{'id': 802, 'main': 'Clouds', 'description': 'scattered clouds', 'icon': '03d'}]",140.0,,1.5
181,stations,0.0,200,-19.16,46.8,1562640160.0,1056151.0,908.5,86.0,1019.46,1019.46,288.053,288.053,288.053,,Mananjary,,,MG,,0.0099,1562642811.0,1562682518.0,,10800.0,,"[{'id': 800, 'main': 'Clear', 'description': 'clear sky', 'icon': '01n'}]",85.64,,1.14
182,stations,18.0,200,4.14,96.13,1562640160.0,1214488.0,1012.2,80.0,1012.52,1012.52,300.463,300.463,300.463,,Meulaboh,,,ID,,0.0056,1562628597.0,1562673051.0,,25200.0,,"[{'id': 801, 'main': 'Clouds', 'description': 'few clouds', 'icon': '02d'}]",83.846,,3.33
183,,,404,,,,,,,,,,,,city not found,,,,,,,,,,,,,,,
184,stations,100.0,200,14.07,5.96,1562640161.0,2441530.0,974.49,66.0,1011.97,1011.97,299.933,299.933,299.933,,Madaoua,,,NE,,0.0055,1562649221.0,1562695713.0,,3600.0,,"[{'id': 804, 'main': 'Clouds', 'description': 'overcast clouds', 'icon': '04n'}]",195.876,,4.86
185,stations,75.0,200,32.79,130.33,1562640161.0,1852479.0,,58.0,1003.0,,300.72,303.15,298.71,,Shimabara,,,JP,8005.0,0.0061,1562617046.0,1562668184.0,1.0,32400.0,10000.0,"[{'id': 521, 'main': 'Rain', 'description': 'shower rain', 'icon': '09d'}]",350.0,,2.1
186,stations,100.0,200,59.24,163.07,1562640161.0,2122389.0,995.54,80.0,1013.93,1013.93,285.163,285.163,285.163,,Ossora,,,RU,,0.0062,1562602010.0,1562667503.0,,43200.0,,"[{'id': 804, 'main': 'Clouds', 'description': 'overcast clouds', 'icon': '04d'}]",70.239,,1.91
187,stations,0.0,200,45.6,-0.6,1562640063.0,3026644.0,,45.0,1014.0,,291.7,294.82,288.15,,Souillac,,,FR,6452.0,0.0074,1562646129.0,1562701954.0,1.0,7200.0,10000.0,"[{'id': 800, 'main': 'Clear', 'description': 'clear sky', 'icon': '01n'}]",20.0,,6.7
188,stations,75.0,200,33.63,130.94,1562640162.0,1848087.0,,73.0,1004.0,,300.61,303.15,298.15,,Miyako,,,JP,7995.0,0.0077,1562616773.0,1562668164.0,1.0,32400.0,10000.0,"[{'id': 803, 'main': 'Clouds', 'description': 'broken clouds', 'icon': '04d'}]",,,1.0
189,stations,5.0,200,55.74,-97.86,1562640126.0,6165406.0,980.39,62.0,1008.29,1008.29,289.843,289.843,289.843,,Thompson,,,CA,,0.0089,1562579912.0,1562642043.0,,-18000.0,,"[{'id': 800, 'main': 'Clear', 'description': 'clear sky', 'icon': '01n'}]",353.884,,2.99
190,stations,75.0,200,-22.28,166.46,1562640162.0,2139521.0,,49.0,1015.0,,295.15,295.15,295.15,,Noumea,,,NC,7344.0,0.008,1562614446.0,1562653440.0,1.0,39600.0,10000.0,"[{'id': 803, 'main': 'Clouds', 'description': 'broken clouds', 'icon': '04d'}]",190.0,,3.1
191,stations,0.0,200,28.22,61.21,1562640162.0,1160571.0,798.58,10.0,998.48,998.48,300.243,300.243,300.243,,Khash,,,IR,,0.0054,1562634285.0,1562684126.0,,16200.0,,"[{'id': 800, 'main': 'Clear', 'description': 'clear sky', 'icon': '01d'}]",300.241,,2.34
192,,,404,,,,,,,,,,,,city not found,,,,,,,,,,,,,,,
193,stations,74.0,200,47.72,128.65,1562640163.0,2033413.0,964.42,36.0,1008.94,1008.94,306.083,306.083,306.083,,Cuiluan,,,CN,,0.0067,1562614575.0,1562671461.0,,28800.0,,"[{'id': 803, 'main': 'Clouds', 'description': 'broken clouds', 'icon': '04d'}]",149.456,,1.73
194,stations,100.0,200,60.47,166.1,1562640163.0,2120591.0,1001.51,75.0,1014.1,1014.1,287.933,287.933,287.933,,Tilichiki,,,RU,,0.0055,1562600535.0,1562667523.0,,43200.0,,"[{'id': 804, 'main': 'Clouds', 'description': 'overcast clouds', 'icon': '04d'}]",43.991,,2.65
195,stations,75.0,200,60.79,-161.76,1562640163.0,5880568.0,,45.0,1009.0,,302.63,304.15,301.15,,Bethel,,,US,7758.0,0.0061,1562592601.0,1562660029.0,1.0,-28800.0,3219.0,"[{'id': 721, 'main': 'Haze', 'description': 'haze', 'icon': '50n'}]",70.0,,3.1
196,,,404,,,,,,,,,,,,city not found,,,,,,,,,,,,,,,
197,stations,75.0,200,-15.77,128.74,1562640163.0,2068110.0,,30.0,1017.0,,301.15,301.15,301.15,,Kununurra,,,AU,9587.0,0.0095,1562622778.0,1562663215.0,1.0,28800.0,10000.0,"[{'id': 803, 'main': 'Clouds', 'description': 'broken clouds', 'icon': '04d'}]",120.0,,6.7
198,stations,40.0,200,6.12,81.12,1562640164.0,1244926.0,,94.0,1011.0,,301.15,301.15,301.15,,Hambantota,,,LK,9124.0,0.0063,1562632001.0,1562676852.0,1.0,19800.0,10000.0,"[{'id': 802, 'main': 'Clouds', 'description': 'scattered clouds', 'icon': '03d'}]",220.0,,3.6
199,stations,20.0,200,42.98,-78.8,1562640164.0,5110629.0,,56.0,1018.0,,289.55,293.15,287.04,,Amherst,,,US,3518.0,0.0079,1562579037.0,1562633768.0,1.0,-14400.0,16093.0,"[{'id': 801, 'main': 'Clouds', 'description': 'few clouds', 'icon': '02n'}]",70.0,,2.1
200,stations,94.0,200,4.27,-54.38,1562640164.0,3381538.0,1001.43,98.0,1015.72,1015.72,294.933,294.933,294.933,,Grand-Santi,,0.25,GF,,0.0063,1562578300.0,1562622783.0,,-10800.0,,"[{'id': 500, 'main': 'Rain', 'description': 'light rain', 'icon': '10n'}]",104.056,,0.71
201,stations,67.0,200,46.16,39.17,1562640164.0,553152.0,1003.83,85.0,1007.44,1007.44,292.003,292.003,292.003,,Krasnogvardeyets,,2.375,RU,,0.0067,1562636447.0,1562692544.0,,10800.0,,"[{'id': 500, 'main': 'Rain', 'description': 'light rain', 'icon': '10d'}]",312.854,,4.76
202,stations,77.0,200,17.54,120.52,1562640165.0,1688687.0,995.69,69.0,1009.01,1009.01,302.773,302.773,302.773,,San Quintin,,,PH,,0.0068,1562621342.0,1562668597.0,,28800.0,,"[{'id': 803, 'main': 'Clouds', 'description': 'broken clouds', 'icon': '04d'}]",223.124,,4.62
203,,,404,,,,,,,,,,,,city not found,,,,,,,,,,,,,,,
204,stations,0.0,200,50.04,20.52,1562640165.0,775758.0,,66.0,1014.0,,283.21,285.37,278.15,,Zatoka,,,PL,1701.0,0.0067,1562639912.0,1562698032.0,1.0,7200.0,10000.0,"[{'id': 800, 'main': 'Clear', 'description': 'clear sky', 'icon': '01d'}]",200.0,,1.0
205,stations,0.0,200,47.8,67.71,1562640166.0,1516589.0,,31.0,1007.0,,297.15,297.15,297.15,,Zhezkazgan,,,KZ,8826.0,0.0081,1562629189.0,1562686102.0,1.0,21600.0,10000.0,"[{'id': 800, 'main': 'Clear', 'description': 'clear sky', 'icon': '01d'}]",350.0,,2.0
206,stations,20.0,200,40.83,-115.76,1562640135.0,5703670.0,,23.0,1015.0,,297.51,300.15,294.82,,Elko,,,US,3961.0,0.0068,1562588342.0,1562642206.0,1.0,-25200.0,16093.0,"[{'id': 801, 'main': 'Clouds', 'description': 'few clouds', 'icon': '02n'}]",280.0,,5.7
207,stations,0.0,200,-17.17,-70.89,1562640053.0,3934608.0,773.5,33.0,1019.27,1019.27,285.493,285.493,285.493,,Tucuman,,,PE,,0.008,1562584440.0,1562624568.0,,-18000.0,,"[{'id': 800, 'main': 'Clear', 'description': 'clear sky', 'icon': '01n'}]",25.187,,1.95
208,stations,90.0,200,59.7,30.79,1562640166.0,546105.0,,87.0,1001.0,,286.66,287.59,284.82,,Nikolskoye,,,RU,8926.0,0.0065,1562633524.0,1562699491.0,1.0,10800.0,10000.0,"[{'id': 804, 'main': 'Clouds', 'description': 'overcast clouds', 'icon': '04d'}]",30.0,,2.0
209,stations,0.0,200,51.86,104.86,1562640167.0,2020744.0,,73.0,1009.0,,292.29,295.15,289.26,,Listvyanka,,,RU,8891.0,0.006,1562619105.0,1562678352.0,1.0,28800.0,10000.0,"[{'id': 800, 'main': 'Clear', 'description': 'clear sky', 'icon': '01d'}]",100.0,,2.0
210,,,404,,,,,,,,,,,,city not found,,,,,,,,,,,,,,,
211,stations,0.0,200,55.32,89.85,1562640167.0,1487882.0,959.21,60.0,1006.72,1006.72,294.683,294.683,294.683,,Uzhur,,,RU,,0.0076,1562621468.0,1562683195.0,,25200.0,,"[{'id': 800, 'main': 'Clear', 'description': 'clear sky', 'icon': '01d'}]",224.012,,0.57
212,stations,57.0,200,10.91,121.99,1562640167.0,1694365.0,1010.23,74.0,1010.32,1010.32,302.083,302.083,302.083,,Patnongon,,,PH,,0.0063,1562621701.0,1562667533.0,,28800.0,,"[{'id': 803, 'main': 'Clouds', 'description': 'broken clouds', 'icon': '04d'}]",206.318,,4.67
213,stations,86.0,200,1.61,16.05,1562640167.0,2255564.0,966.09,90.0,1013.08,1013.08,294.163,294.163,294.163,,Ouesso,,,CG,,0.009,1562648070.0,1562692020.0,,3600.0,,"[{'id': 804, 'main': 'Clouds', 'description': 'overcast clouds', 'icon': '04n'}]",327.657,,1.03
214,stations,5.0,200,22.15,-100.98,1562640131.0,3985606.0,,53.0,1023.0,,295.15,295.15,295.15,,San Luis Potosi,,,MX,7168.0,0.0059,1562587563.0,1562635890.0,1.0,-18000.0,24140.0,"[{'id': 800, 'main': 'Clear', 'description': 'clear sky', 'icon': '01n'}]",100.0,,3.6
215,stations,24.0,200,34.57,105.89,1562640168.0,1816751.0,829.27,51.0,1008.49,1008.49,293.723,293.723,293.723,,Beidao,,0.812,CN,,0.0094,1562622642.0,1562674320.0,,28800.0,,"[{'id': 500, 'main': 'Rain', 'description': 'light rain', 'icon': '10d'}]",14.694,,3.32
216,stations,90.0,200,24.02,-104.67,1562640168.0,4011743.0,,77.0,1024.0,,290.52,290.93,290.15,,Durango,0.76,,MX,7113.0,0.0059,1562588222.0,1562637002.0,1.0,-18000.0,14484.0,"[{'id': 500, 'main': 'Rain', 'description': 'light rain', 'icon': '10n'}]",341.802,,0.77
217,,,404,,,,,,,,,,,,city not found,,,,,,,,,,,,,,,
218,stations,1.0,200,39.26,-84.82,1562640169.0,4513805.0,,78.0,1016.0,,296.24,298.15,294.26,,Harrison,,,US,4476.0,0.0099,1562581206.0,1562634489.0,1.0,-14400.0,16093.0,"[{'id': 800, 'main': 'Clear', 'description': 'clear sky', 'icon': '01n'}]",39.098,,3.0
219,stations,100.0,200,27.93,96.16,1562640169.0,1254709.0,952.58,98.0,1006.78,1006.78,294.633,294.633,294.633,,Tezu,,12.688,IN,,0.0086,1562625933.0,1562675700.0,,19800.0,,"[{'id': 502, 'main': 'Rain', 'description': 'heavy intensity rain', 'icon': '10d'}]",66.926,,1.45
220,stations,20.0,200,69.22,-51.1,1562640017.0,3423146.0,,61.0,1011.0,,283.15,283.15,283.15,,Ilulissat,,,GL,165.0,0.0086,0.0,0.0,1.0,-7200.0,10000.0,"[{'id': 801, 'main': 'Clouds', 'description': 'few clouds', 'icon': '02d'}]",20.0,,1.5
221,stations,5.0,200,-26.98,-56.83,1562640036.0,3437029.0,1007.85,85.0,1021.79,1021.79,282.653,282.653,282.653,,San Patricio,,,PY,,0.0066,1562582202.0,1562620056.0,,-14400.0,,"[{'id': 800, 'main': 'Clear', 'description': 'clear sky', 'icon': '01n'}]",67.56,,2.72
222,stations,75.0,200,43.97,-111.68,1562640169.0,5606187.0,,39.0,1017.0,,289.62,291.15,286.15,,Saint Anthony,0.25,,US,5735.0,0.0067,1562586722.0,1562641867.0,1.0,-21600.0,16093.0,"[{'id': 500, 'main': 'Rain', 'description': 'light rain', 'icon': '10n'}]",290.0,8.2,4.6
223,stations,90.0,200,19.71,-155.08,1562640170.0,5855927.0,,88.0,1015.0,,298.04,299.26,295.93,,Hilo,1.27,,US,7881.0,0.0055,1562600836.0,1562648587.0,1.0,-36000.0,8047.0,"[{'id': 501, 'main': 'Rain', 'description': 'moderate rain', 'icon': '10n'}, {'id': 701, 'main': 'Mist', 'description': 'mist', 'icon': '50n'}]",120.0,,4.1
224,stations,1.0,200,43.41,-124.22,1562640170.0,5742974.0,,72.0,1016.0,,290.61,291.48,289.15,,North Bend,,,US,5239.0,0.0068,1562589853.0,1562644756.0,1.0,-25200.0,16093.0,"[{'id': 800, 'main': 'Clear', 'description': 'clear sky', 'icon': '01n'}]",320.0,,4.6
225,stations,0.0,200,64.42,-173.23,1562640170.0,4031574.0,,43.0,1015.0,,296.15,296.15,296.15,,Provideniya,,,RU,8875.0,0.0074,1562678650.0,1562752303.0,1.0,43200.0,10000.0,"[{'id': 800, 'main': 'Clear', 'description': 'clear sky', 'icon': '01n'}]",10.0,,8.0
226,stations,75.0,200,46.41,-105.84,1562640170.0,5666176.0,,56.0,1008.0,,292.19,295.15,290.37,,Miles City,,,US,4930.0,0.0076,1562584762.0,1562641024.0,1.0,-21600.0,8047.0,"[{'id': 200, 'main': 'Thunderstorm', 'description': 'thunderstorm with light rain', 'icon': '11n'}]",330.0,15.4,8.2
227,stations,0.0,200,-34.61,-68.33,1562640171.0,3836669.0,913.37,66.0,1016.12,1016.12,281.543,281.543,281.543,,San Rafael,,,AR,,0.0059,1562586000.0,1562621779.0,,-10800.0,,"[{'id': 800, 'main': 'Clear', 'description': 'clear sky', 'icon': '01n'}]",156.836,,2.65
228,stations,100.0,200,60.14,-45.24,1562640171.0,3421765.0,1002.71,65.0,1013.05,1013.05,281.603,281.603,281.603,,Nanortalik,,0.188,GL,,0.0072,1562651524.0,1562717989.0,,-7200.0,,"[{'id': 500, 'main': 'Rain', 'description': 'light rain', 'icon': '10n'}]",4.723,,2.93
229,stations,100.0,200,65.8,87.96,1562640074.0,1488903.0,990.1,92.0,992.71,992.71,283.623,283.623,283.623,,Turukhansk,,,RU,,0.0075,1562613666.0,1562691904.0,,25200.0,,"[{'id': 804, 'main': 'Clouds', 'description': 'overcast clouds', 'icon': '04d'}]",326.526,,5.66
230,stations,37.0,200,61.92,159.24,1562640171.0,2125693.0,993.8,49.0,1013.5,1013.5,292.073,292.073,292.073,,Evensk,,,RU,,0.0063,1562601151.0,1562670201.0,,39600.0,,"[{'id': 802, 'main': 'Clouds', 'description': 'scattered clouds', 'icon': '03d'}]",194.504,,1.87
231,stations,100.0,200,11.28,-15.83,1562640172.0,2374583.0,1013.83,79.0,1014.07,1014.07,299.923,299.923,299.923,,Bubaque,,,GW,,0.0065,1562654745.0,1562700649.0,,0.0,,"[{'id': 804, 'main': 'Clouds', 'description': 'overcast clouds', 'icon': '04n'}]",221.499,,3.98
232,stations,100.0,200,40.97,117.93,1562640172.0,2038087.0,936.7,51.0,1007.62,1007.62,298.083,298.083,298.083,,ChengDe,,,CN,,0.0066,1562618643.0,1562672540.0,,28800.0,,"[{'id': 804, 'main': 'Clouds', 'description': 'overcast clouds', 'icon': '04d'}]",69.2,,1.46
233,stations,74.0,200,65.61,-37.64,1562640172.0,3424607.0,,67.0,1021.0,,274.15,274.15,274.15,,Tasiilaq,,,GL,81.0,0.0083,1562644269.0,1562721595.0,1.0,-7200.0,,"[{'id': 741, 'main': 'Fog', 'description': 'fog', 'icon': '50n'}]",260.0,,3.1
234,stations,42.0,200,-19.06,-169.92,1562640172.0,4036284.0,1010.18,81.0,1011.17,1011.17,298.383,298.383,298.383,,Alofi,,,NU,,0.0067,1562608413.0,1562648134.0,,-39600.0,,"[{'id': 802, 'main': 'Clouds', 'description': 'scattered clouds', 'icon': '03n'}]",59.715,,3.88
235,,,404,,,,,,,,,,,,city not found,,,,,,,,,,,,,,,
236,stations,1.0,200,40.75,-92.42,1562640173.0,4848854.0,,69.0,1015.0,,296.41,297.15,296.15,,Bloomfield,,,US,5220.0,0.0068,1562582753.0,1562636590.0,1.0,-18000.0,11265.0,"[{'id': 721, 'main': 'Haze', 'description': 'haze', 'icon': '50n'}]",100.0,,2.1
237,stations,0.0,200,62.93,152.39,1562640173.0,2121373.0,960.6,35.0,1010.0,1010.0,295.363,295.363,295.363,,Seymchan,,,RU,,0.0094,1562601941.0,1562672699.0,,39600.0,,"[{'id': 800, 'main': 'Clear', 'description': 'clear sky', 'icon': '01d'}]",168.771,,3.91
238,stations,0.0,200,-16.39,-71.52,1562640173.0,3947322.0,,13.0,1029.0,,286.15,286.15,286.15,,Miraflores,,,PE,8696.0,0.0073,1562584507.0,1562624803.0,1.0,-18000.0,10000.0,"[{'id': 800, 'main': 'Clear', 'description': 'clear sky', 'icon': '01n'}]",20.0,,3.1
239,stations,0.0,200,-20.31,118.58,1562640174.0,2063042.0,,22.0,1019.0,,300.15,300.15,300.15,,Port Hedland,,,AU,9585.0,0.0062,1562625712.0,1562665159.0,1.0,28800.0,10000.0,"[{'id': 800, 'main': 'Clear', 'description': 'clear sky', 'icon': '01d'}]",80.0,,4.1
240,stations,75.0,200,78.22,15.63,1562640174.0,2729907.0,,87.0,1022.0,,283.15,283.15,283.15,,Longyearbyen,,,NO,1663.0,0.0075,0.0,0.0,1.0,7200.0,10000.0,"[{'id': 803, 'main': 'Clouds', 'description': 'broken clouds', 'icon': '04d'}]",,,1.5
241,stations,1.0,200,-22.97,-42.02,1562640174.0,3471451.0,1025.69,74.0,1027.27,1027.27,290.693,290.693,290.693,,Arraial do Cabo,,,BR,,0.0087,1562578163.0,1562616986.0,,-10800.0,,"[{'id': 800, 'main': 'Clear', 'description': 'clear sky', 'icon': '01n'}]",30.802,,4.63
242,stations,100.0,200,53.86,46.36,1562640174.0,556283.0,976.06,93.0,999.88,999.88,289.363,289.363,289.363,,Inza,,,RU,,0.0058,1562632472.0,1562693067.0,,14400.0,,"[{'id': 804, 'main': 'Clouds', 'description': 'overcast clouds', 'icon': '04d'}]",135.452,,4.66
243,,,404,,,,,,,,,,,,city not found,,,,,,,,,,,,,,,
244,,,404,,,,,,,,,,,,city not found,,,,,,,,,,,,,,,
245,stations,100.0,200,3.12,35.6,1562640175.0,189280.0,949.45,47.0,1012.92,1012.92,300.233,300.233,300.233,,Lodwar,,,KE,,0.0066,1562643228.0,1562687478.0,,10800.0,,"[{'id': 804, 'main': 'Clouds', 'description': 'overcast clouds', 'icon': '04n'}]",84.508,,8.12
246,,,404,,,,,,,,,,,,city not found,,,,,,,,,,,,,,,
247,,,404,,,,,,,,,,,,city not found,,,,,,,,,,,,,,,
248,stations,0.0,200,-9.98,-67.82,1562640175.0,3662574.0,,100.0,1017.0,,292.15,292.15,292.15,,Rio Branco,,,BR,8425.0,0.0066,1562582950.0,1562624584.0,1.0,-18000.0,10000.0,"[{'id': 800, 'main': 'Clear', 'description': 'clear sky', 'icon': '01n'}]",211.759,,0.07
249,,,404,,,,,,,,,,,,city not found,,,,,,,,,,,,,,,
250,stations,1.0,200,30.04,-94.42,1562640176.0,4732862.0,,94.0,1014.0,,301.83,303.15,300.93,,Nome,,,US,5230.0,0.0065,1562584972.0,1562635331.0,1.0,-18000.0,16093.0,"[{'id': 800, 'main': 'Clear', 'description': 'clear sky', 'icon': '01n'}]",220.0,,1.5
251,stations,0.0,200,-31.43,152.91,1562640148.0,2152659.0,,48.0,1019.0,,292.01,293.15,290.15,,Port Macquarie,,,AU,9610.0,0.0069,1562618844.0,1562655547.0,1.0,36000.0,10000.0,"[{'id': 800, 'main': 'Clear', 'description': 'clear sky', 'icon': '01d'}]",270.0,,4.1
252,stations,75.0,200,-2.42,115.25,1562640176.0,1651461.0,1011.4,48.0,1012.35,1012.35,305.823,305.823,305.823,,Amuntai,,,ID,,0.0072,1562624659.0,1562667810.0,,28800.0,,"[{'id': 803, 'main': 'Clouds', 'description': 'broken clouds', 'icon': '04d'}]",150.649,,0.45
253,stations,0.0,200,17.54,44.22,1562640177.0,103630.0,,31.0,1011.0,,305.15,305.15,305.15,,Najran,,,SA,7421.0,0.006,1562639658.0,1562686909.0,1.0,10800.0,10000.0,"[{'id': 800, 'main': 'Clear', 'description': 'clear sky', 'icon': '01d'}]",320.0,,5.1
254,stations,69.0,200,51.07,-1.8,1562640092.0,2638664.0,,76.0,1021.0,,286.56,288.71,283.71,,Salisbury,,,GB,1385.0,0.01,1562644967.0,1562703692.0,1.0,3600.0,10000.0,"[{'id': 803, 'main': 'Clouds', 'description': 'broken clouds', 'icon': '04n'}]",190.0,,2.6
255,stations,1.0,200,41.28,-70.1,1562640177.0,4944903.0,,87.0,1016.0,,291.26,293.15,289.15,,Nantucket,,,US,3218.0,0.0077,1562577291.0,1562631337.0,1.0,-14400.0,16093.0,"[{'id': 800, 'main': 'Clear', 'description': 'clear sky', 'icon': '01n'}]",250.0,,1.5
256,stations,95.0,200,56.98,52.19,1562640177.0,477656.0,,90.0,1007.0,,285.93,285.93,285.93,,Uva,,,RU,2003018.0,0.0072,1562629799.0,1562692942.0,3.0,14400.0,,"[{'id': 804, 'main': 'Clouds', 'description': 'overcast clouds', 'icon': '04d'}]",129.117,,1.78
257,stations,7.0,200,63.75,-68.52,1562640177.0,5983720.0,,76.0,1020.0,,284.82,284.82,284.82,,Iqaluit,,,CA,47658.0,0.0064,1562567690.0,1562640180.0,3.0,-14400.0,,"[{'id': 800, 'main': 'Clear', 'description': 'clear sky', 'icon': '01n'}]",340.0,,1.79
258,stations,0.0,200,29.04,67.82,1562640178.0,1182872.0,972.6,45.0,996.44,996.44,307.693,307.693,307.693,,Bhag,,,PK,,0.0069,1562632588.0,1562682650.0,,18000.0,,"[{'id': 800, 'main': 'Clear', 'description': 'clear sky', 'icon': '01d'}]",88.882,,2.92
259,stations,75.0,200,-51.62,-69.22,1562640178.0,3838859.0,,100.0,1011.0,,277.15,277.15,277.15,,Rio Gallegos,,,AR,8293.0,0.0087,1562589661.0,1562618545.0,1.0,-10800.0,3000.0,"[{'id': 701, 'main': 'Mist', 'description': 'mist', 'icon': '50n'}]",90.0,,2.1
260,stations,100.0,200,0.77,24.47,1562640178.0,203717.0,966.76,92.0,1013.17,1013.17,294.613,294.613,294.613,,Yangambi,,0.625,CD,,0.0071,1562646132.0,1562689916.0,,7200.0,,"[{'id': 500, 'main': 'Rain', 'description': 'light rain', 'icon': '10n'}]",1.601,,1.47
261,stations,1.0,200,41.45,-82.04,1562640178.0,5146277.0,,52.0,1018.0,,290.96,294.15,287.59,,Avon,,,US,4755.0,0.0098,1562580125.0,1562634236.0,1.0,-14400.0,16093.0,"[{'id': 800, 'main': 'Clear', 'description': 'clear sky', 'icon': '01n'}]",50.0,,1.5
262,stations,75.0,200,63.73,8.83,1562640179.0,3139597.0,,100.0,1018.0,,284.26,284.82,283.71,,Sistranda,,,NO,1647.0,0.0057,1562635661.0,1562707895.0,1.0,7200.0,10000.0,"[{'id': 803, 'main': 'Clouds', 'description': 'broken clouds', 'icon': '04d'}]",320.0,,2.1
263,stations,40.0,200,20.89,-156.47,1562640016.0,5847411.0,,62.0,1013.0,,300.67,304.15,298.15,,Kahului,,,US,7879.0,0.007,1562601033.0,1562649058.0,1.0,-36000.0,16093.0,"[{'id': 500, 'main': 'Rain', 'description': 'light rain', 'icon': '10n'}]",60.0,16.5,10.8
264,stations,13.0,200,66.15,-65.72,1562640179.0,6096551.0,947.32,76.0,1019.37,1019.37,283.763,283.763,283.763,,Pangnirtung,,,CA,,0.0078,1562563140.0,1562643386.0,,-14400.0,,"[{'id': 801, 'main': 'Clouds', 'description': 'few clouds', 'icon': '02n'}]",21.972,,1.31
265,,,404,,,,,,,,,,,,city not found,,,,,,,,,,,,,,,
266,,,404,,,,,,,,,,,,city not found,,,,,,,,,,,,,,,
267,stations,0.0,200,42.08,-8.48,1562640180.0,2737523.0,,93.0,1017.0,,289.22,290.93,287.59,,Moncao,,,PT,6440.0,0.007,1562648778.0,1562703088.0,1.0,3600.0,10000.0,"[{'id': 800, 'main': 'Clear', 'description': 'clear sky', 'icon': '01n'}]",20.0,,2.6
268,stations,46.0,200,15.01,-2.95,1562640180.0,2458334.0,964.55,56.0,1009.49,1009.49,301.443,301.443,301.443,,Douentza,,0.5,ML,,0.0067,1562651259.0,1562697952.0,,0.0,,"[{'id': 500, 'main': 'Rain', 'description': 'light rain', 'icon': '10n'}]",235.589,,9.07
269,stations,90.0,200,64.84,-147.72,1562640158.0,5861897.0,,36.0,1013.0,,299.67,300.93,298.15,,Fairbanks,,,US,7684.0,0.0066,1562585387.0,1562660503.0,1.0,-28800.0,1609.0,"[{'id': 711, 'main': 'Smoke', 'description': 'smoke', 'icon': '50n'}]",79.382,,2.86
270,stations,75.0,200,18.47,120.58,1562640180.0,1715335.0,,62.0,1009.0,,305.15,305.15,305.15,,Davila,,,PH,8159.0,0.006,1562621223.0,1562668687.0,1.0,28800.0,10000.0,"[{'id': 803, 'main': 'Clouds', 'description': 'broken clouds', 'icon': '04d'}]",220.0,,6.2
271,stations,74.0,200,14.4,46.47,1562640181.0,72181.0,854.65,32.0,1007.51,1007.51,299.343,299.343,299.343,,Marzuq,,,YE,,0.0062,1562639461.0,1562686026.0,,10800.0,,"[{'id': 803, 'main': 'Clouds', 'description': 'broken clouds', 'icon': '04d'}]",204.773,,2.36
272,stations,75.0,200,5.28,115.24,1562640181.0,1733782.0,,66.0,1012.0,,303.69,304.15,303.15,,Victoria,,,BN,9372.0,0.0072,1562623896.0,1562668578.0,1.0,28800.0,10000.0,"[{'id': 803, 'main': 'Clouds', 'description': 'broken clouds', 'icon': '04d'}]",,,0.5
273,stations,40.0,200,-16.99,145.42,1562640181.0,2158767.0,,94.0,1017.0,,293.93,295.37,292.04,,Mareeba,0.25,,AU,9490.0,0.0063,1562618906.0,1562659080.0,1.0,36000.0,10000.0,"[{'id': 500, 'main': 'Rain', 'description': 'light rain', 'icon': '10d'}]",170.0,,4.6
274,stations,51.0,200,66.32,-179.17,1562640181.0,4031742.0,956.34,30.0,1014.19,1014.19,299.423,299.423,299.423,,Egvekinot,,,RU,,0.0063,1562676741.0,1562757064.0,,43200.0,,"[{'id': 803, 'main': 'Clouds', 'description': 'broken clouds', 'icon': '04d'}]",115.921,,1.79
275,stations,0.0,200,-45.87,-67.48,1562640182.0,3860443.0,,75.0,1013.0,,281.15,281.15,281.15,,Comodoro Rivadavia,,,AR,8284.0,0.0054,1562587807.0,1562619564.0,1.0,-10800.0,10000.0,"[{'id': 800, 'main': 'Clear', 'description': 'clear sky', 'icon': '01n'}]",289.534,,1.52
276,stations,100.0,200,-2.57,150.8,1562640182.0,2094342.0,1007.5,76.0,1008.19,1008.19,301.053,301.053,301.053,,Kavieng,,3.438,PG,,0.0061,1562616141.0,1562659263.0,,36000.0,,"[{'id': 501, 'main': 'Rain', 'description': 'moderate rain', 'icon': '10d'}]",124.086,,4.7
277,stations,0.0,200,36.17,54.34,1562640182.0,138025.0,796.82,41.0,1003.75,1003.75,293.773,293.773,293.773,,Damghan,,,IR,,0.0057,1562634763.0,1562686946.0,,16200.0,,"[{'id': 800, 'main': 'Clear', 'description': 'clear sky', 'icon': '01d'}]",151.844,,3.69
278,stations,48.0,200,-12.58,13.4,1562640182.0,3351663.0,1013.37,87.0,1013.69,1013.69,292.963,292.963,292.963,,Benguela,,,AO,,0.0075,1562650126.0,1562691236.0,,3600.0,,"[{'id': 802, 'main': 'Clouds', 'description': 'scattered clouds', 'icon': '03n'}]",210.49,,2.78
279,stations,0.0,200,47.1,51.92,1562640183.0,610529.0,,64.0,1007.0,,295.15,295.15,295.15,,Atyrau,,,KZ,8836.0,0.0078,1562633158.0,1562689713.0,1.0,18000.0,10000.0,"[{'id': 800, 'main': 'Clear', 'description': 'clear sky', 'icon': '01d'}]",60.0,,3.0
280,stations,100.0,200,10.57,72.64,1562640126.0,1267390.0,1008.94,79.0,1008.68,1008.68,301.943,301.943,301.943,,Kavaratti,,0.312,IN,,0.006,1562633583.0,1562679342.0,,19800.0,,"[{'id': 500, 'main': 'Rain', 'description': 'light rain', 'icon': '10d'}]",234.235,,8.66
281,stations,75.0,200,40.06,-8.63,1562640183.0,2733851.0,,88.0,1016.0,,291.61,292.15,291.48,,Soure,,,PT,6896.0,0.0091,1562649203.0,1562702734.0,1.0,3600.0,10000.0,"[{'id': 803, 'main': 'Clouds', 'description': 'broken clouds', 'icon': '04n'}]",340.0,,2.1
282,stations,100.0,200,60.72,-46.03,1562640114.0,3420846.0,,23.0,1011.0,,289.15,289.15,289.15,,Qaqortoq,,,GL,47.0,0.0062,1562651341.0,1562718550.0,1.0,-7200.0,,"[{'id': 804, 'main': 'Clouds', 'description': 'overcast clouds', 'icon': '04n'}]",70.0,,9.8
283,stations,3.0,200,12.15,-68.27,1562640084.0,3513563.0,,78.0,1015.0,,301.15,301.15,301.15,,Kralendijk,,,BQ,8794.0,0.0063,1562580826.0,1562626924.0,1.0,-14400.0,10000.0,"[{'id': 800, 'main': 'Clear', 'description': 'clear sky', 'icon': '01n'}]",90.0,,6.7
284,stations,70.0,200,15.12,108.8,1562640184.0,1568770.0,965.8,41.0,1007.15,1007.15,308.023,308.023,308.023,,Quang Ngai,,,VN,,0.0085,1562624421.0,1562671144.0,,25200.0,,"[{'id': 803, 'main': 'Clouds', 'description': 'broken clouds', 'icon': '04d'}]",289.2,,0.99
285,stations,75.0,200,65.95,111.51,1562640184.0,2027296.0,,46.0,1001.0,,296.15,296.15,296.15,,Aykhal,,,RU,8846.0,0.0084,1562607668.0,1562686596.0,1.0,32400.0,10000.0,"[{'id': 803, 'main': 'Clouds', 'description': 'broken clouds', 'icon': '04d'}]",190.0,,4.0
286,stations,73.0,200,71.03,27.85,1562640184.0,778707.0,1003.59,74.0,1018.57,1018.57,280.873,280.873,280.873,,Mehamn,,,NO,,0.0083,0.0,0.0,,7200.0,,"[{'id': 803, 'main': 'Clouds', 'description': 'broken clouds', 'icon': '04d'}]",348.369,,1.68
287,stations,98.0,200,58.52,-117.13,1562640185.0,5975004.0,969.08,46.0,1015.23,1015.23,286.753,286.753,286.753,,High Level,,,CA,,0.0226,1562583234.0,1562647971.0,,-21600.0,,"[{'id': 804, 'main': 'Clouds', 'description': 'overcast clouds', 'icon': '04n'}]",346.857,,2.19
288,stations,90.0,200,-41.87,-73.83,1562640054.0,3899695.0,,100.0,1012.0,,283.15,283.15,283.15,,Ancud,,,CL,8512.0,0.0074,1562588525.0,1562621894.0,1.0,-14400.0,10000.0,"[{'id': 520, 'main': 'Rain', 'description': 'light intensity shower rain', 'icon': '09n'}]",20.0,,6.2
289,stations,20.0,200,43.32,145.57,1562640185.0,2128975.0,,68.0,1012.0,,295.15,295.15,295.15,,Nemuro,,,JP,7976.0,0.0065,1562611533.0,1562666381.0,1.0,32400.0,10000.0,"[{'id': 801, 'main': 'Clouds', 'description': 'few clouds', 'icon': '02d'}]",80.0,,2.6
290,stations,0.0,200,-9.91,-63.03,1562640185.0,3665199.0,993.02,68.0,1015.42,1015.42,293.713,293.713,293.713,,Ariquemes,,,BR,,0.0064,1562581793.0,1562623441.0,,-14400.0,,"[{'id': 800, 'main': 'Clear', 'description': 'clear sky', 'icon': '01n'}]",181.426,,0.76
291,stations,75.0,200,39.38,141.88,1562640186.0,2111310.0,,64.0,1010.0,,294.15,294.15,294.15,,Otsuchi,,,JP,8047.0,0.0065,1562613190.0,1562666495.0,1.0,32400.0,10000.0,"[{'id': 803, 'main': 'Clouds', 'description': 'broken clouds', 'icon': '04d'}]",200.0,,4.1
292,stations,68.0,200,60.89,131.98,1562640186.0,2027786.0,970.71,52.0,1003.49,1003.49,300.983,300.983,300.983,,Amga,,,RU,,0.0058,1562608454.0,1562675984.0,,32400.0,,"[{'id': 803, 'main': 'Clouds', 'description': 'broken clouds', 'icon': '04d'}]",155.091,,3.73
293,stations,97.0,200,2.43,103.84,1562640186.0,1732826.0,1001.99,61.0,1011.86,1011.86,303.603,303.603,303.603,,Mersing,,,MY,,0.0059,1562626917.0,1562671030.0,,28800.0,,"[{'id': 804, 'main': 'Clouds', 'description': 'overcast clouds', 'icon': '04d'}]",196.528,,2.53
294,stations,0.0,200,38.09,-1.8,1562640186.0,2519651.0,,73.0,897.0,,292.76,296.48,287.59,,Cehegin,,,ES,2013233.0,0.0056,1562647918.0,1562700741.0,3.0,7200.0,,"[{'id': 800, 'main': 'Clear', 'description': 'clear sky', 'icon': '01n'}]",270.0,5.81,3.58
295,stations,44.0,200,3.07,172.79,1562640187.0,2110227.0,1006.46,70.0,1006.43,1006.43,302.563,302.563,302.563,,Butaritari,,,KI,,0.0066,1562610303.0,1562654544.0,,43200.0,,"[{'id': 802, 'main': 'Clouds', 'description': 'scattered clouds', 'icon': '03d'}]",228.878,,4.14
296,stations,100.0,200,54.78,-127.17,1562640187.0,6149996.0,899.16,88.0,1009.69,1009.69,290.163,290.163,290.163,,Smithers,,2.25,CA,,0.0086,1562587339.0,1562648686.0,,-25200.0,,"[{'id': 500, 'main': 'Rain', 'description': 'light rain', 'icon': '10n'}]",268.86,,1.66
297,stations,100.0,200,9.44,-78.59,1562640187.0,3703946.0,1006.79,83.0,1012.36,1012.36,299.243,299.243,299.243,,Nargana,,,PA,,0.0074,1562583586.0,1562629118.0,,-18000.0,,"[{'id': 804, 'main': 'Clouds', 'description': 'overcast clouds', 'icon': '04n'}]",191.762,,3.28
298,stations,1.0,200,-14.1,-46.63,1562640187.0,3461641.0,947.43,62.0,1020.32,1020.32,292.063,292.063,292.063,,Iaciara,,,BR,,0.0071,1562578290.0,1562619072.0,,-10800.0,,"[{'id': 800, 'main': 'Clear', 'description': 'clear sky', 'icon': '01n'}]",258.223,,1.83
299,stations,99.0,200,25.33,76.51,1562640188.0,1263751.0,972.39,75.0,998.67,998.67,301.773,301.773,301.773,,Mangrol,,,IN,,0.009,1562630987.0,1562680079.0,,19800.0,,"[{'id': 804, 'main': 'Clouds', 'description': 'overcast clouds', 'icon': '04d'}]",250.571,,6.56
300,stations,0.0,200,39.45,22.34,1562640188.0,262462.0,,83.0,1011.0,,295.08,296.15,294.15,,Saint George,,,GR,6629.0,0.0059,1562641879.0,1562695191.0,1.0,10800.0,10000.0,"[{'id': 800, 'main': 'Clear', 'description': 'clear sky', 'icon': '01n'}]",305.36,,0.6
301,stations,72.0,200,66.08,33.04,1562640188.0,533964.0,1011.4,82.0,1015.26,1015.26,279.883,279.883,279.883,,Loukhi,,,RU,,0.0058,1562626255.0,1562705679.0,,10800.0,,"[{'id': 803, 'main': 'Clouds', 'description': 'broken clouds', 'icon': '04d'}]",50.907,,3.74
302,stations,0.0,200,-22.12,14.28,1562640188.0,3356832.0,1015.08,29.0,1015.83,1015.83,293.543,293.543,293.543,,Henties Bay,,,NA,,0.0081,1562650948.0,1562689991.0,,7200.0,,"[{'id': 800, 'main': 'Clear', 'description': 'clear sky', 'icon': '01n'}]",67.116,,5.83
303,stations,2.0,200,55.1,-105.3,1562640189.0,6050066.0,964.09,56.0,1011.16,1011.16,287.483,287.483,287.483,,La Ronge,,,CA,,0.0078,1562581960.0,1562643566.0,,-21600.0,,"[{'id': 800, 'main': 'Clear', 'description': 'clear sky', 'icon': '01n'}]",307.778,,0.52
304,stations,0.0,200,-3.13,-59.98,1562640189.0,3663517.0,,88.0,1016.0,,298.64,299.15,298.15,,Manaus,,,BR,8412.0,0.0066,1562580381.0,1562623390.0,1.0,-14400.0,10000.0,"[{'id': 800, 'main': 'Clear', 'description': 'clear sky', 'icon': '01n'}]",180.0,,1.0
305,stations,0.0,200,38.36,31.42,1562640027.0,324490.0,855.37,66.0,1013.57,1013.57,287.863,287.863,287.863,,Aksehir,,,TR,,0.0059,1562639894.0,1562692818.0,,10800.0,,"[{'id': 800, 'main': 'Clear', 'description': 'clear sky', 'icon': '01d'}]",38.76,,0.63
306,stations,0.0,200,49.51,0.2,1562640189.0,3013922.0,,76.0,1021.0,,284.22,286.15,282.59,,Harfleur,,,FR,6533.0,0.007,1562644943.0,1562702756.0,1.0,7200.0,10000.0,"[{'id': 800, 'main': 'Clear', 'description': 'clear sky', 'icon': '01n'}]",100.0,,3.1
307,stations,32.0,200,52.87,-104.61,1562640189.0,6071876.0,958.07,89.0,1010.04,1010.04,289.443,289.443,289.443,,Melfort,,0.75,CA,,0.0062,1562582618.0,1562642577.0,,-21600.0,,"[{'id': 500, 'main': 'Rain', 'description': 'light rain', 'icon': '10n'}]",38.227,,1.72
308,stations,75.0,200,69.41,86.18,1562640190.0,1507116.0,,81.0,993.0,,282.15,282.15,282.15,,Dudinka,,,RU,8951.0,0.0083,0.0,0.0,1.0,25200.0,10000.0,"[{'id': 803, 'main': 'Clouds', 'description': 'broken clouds', 'icon': '04d'}]",10.0,,11.0
309,stations,0.0,200,-28.24,-48.67,1562640190.0,3461370.0,,82.0,1025.0,,288.15,288.15,288.15,,Imbituba,,,BR,8360.0,0.0068,1562580404.0,1562617937.0,1.0,-10800.0,10000.0,"[{'id': 800, 'main': 'Clear', 'description': 'clear sky', 'icon': '01n'}]",330.0,,3.6
310,stations,93.0,200,-2.17,16.23,1562640190.0,2316748.0,970.18,71.0,1012.58,1012.58,296.363,296.363,296.363,,Bolobo,,,CD,,0.0071,1562648401.0,1562691603.0,,3600.0,,"[{'id': 804, 'main': 'Clouds', 'description': 'overcast clouds', 'icon': '04n'}]",346.079,,1.33
311,stations,0.0,200,9.43,-84.16,1562640190.0,3622193.0,,94.0,1018.0,,292.59,293.71,291.48,,Quepos,,,CR,7217.0,0.0083,1562584924.0,1562630454.0,1.0,-21600.0,10000.0,"[{'id': 800, 'main': 'Clear', 'description': 'clear sky', 'icon': '01n'}]",70.0,,2.1
312,stations,97.0,200,70.62,147.9,1562640022.0,2126123.0,1004.17,34.0,1006.21,1006.21,296.583,296.583,296.583,,Chokurdakh,,,RU,,0.0063,0.0,0.0,,39600.0,,"[{'id': 804, 'main': 'Clouds', 'description': 'overcast clouds', 'icon': '04d'}]",187.488,,4.29
313,stations,40.0,200,-3.68,-80.68,1562640191.0,3690608.0,,33.0,1013.0,,305.15,305.15,305.15,,Zorritos,,,PE,8673.0,0.0076,1562585404.0,1562628304.0,1.0,-18000.0,10000.0,"[{'id': 802, 'main': 'Clouds', 'description': 'scattered clouds', 'icon': '03n'}]",270.0,,2.1
314,stations,79.0,200,70.98,25.97,1562640191.0,779554.0,1015.43,82.0,1018.93,1018.93,280.883,280.883,280.883,,Honningsvag,,,NO,,0.0071,0.0,0.0,,7200.0,,"[{'id': 803, 'main': 'Clouds', 'description': 'broken clouds', 'icon': '04d'}]",18.955,,0.56
315,stations,95.0,200,68.75,161.3,1562640191.0,2126199.0,1011.26,39.0,1012.02,1012.02,296.393,296.393,296.393,,Cherskiy,,,RU,,0.0069,0.0,0.0,,39600.0,,"[{'id': 804, 'main': 'Clouds', 'description': 'overcast clouds', 'icon': '04d'}]",158.458,,4.55
316,stations,1.0,200,30.98,-110.3,1562640192.0,4015700.0,,12.0,1020.0,,301.86,303.15,299.82,,Cananea,,,MX,4096.0,0.006,1562588652.0,1562639275.0,1.0,-25200.0,16093.0,"[{'id': 800, 'main': 'Clear', 'description': 'clear sky', 'icon': '01n'}]",270.0,,5.1
317,stations,100.0,200,58.52,125.52,1562640192.0,2020871.0,910.62,58.0,1004.83,1004.83,293.483,293.483,293.483,,Lebedinyy,,,RU,,0.0071,1562611425.0,1562676114.0,,32400.0,,"[{'id': 804, 'main': 'Clouds', 'description': 'overcast clouds', 'icon': '04d'}]",197.044,,3.2
318,,,404,,,,,,,,,,,,city not found,,,,,,,,,,,,,,,
319,stations,87.0,200,50.56,-96.99,1562640192.0,5961417.0,,74.0,1007.0,,295.37,295.37,295.37,,Husavik,,0.125,CA,19218.0,0.0073,1562581525.0,1562640012.0,3.0,-18000.0,,"[{'id': 500, 'main': 'Rain', 'description': 'light rain', 'icon': '10n'}]",330.842,,1.39
320,,,404,,,,,,,,,,,,city not found,,,,,,,,,,,,,,,
321,stations,90.0,200,62.62,22.4,1562640193.0,650098.0,,81.0,1010.0,,282.47,283.15,282.04,,Kurikka,,,FI,1358.0,0.009,1562633460.0,1562703581.0,1.0,10800.0,10000.0,"[{'id': 804, 'main': 'Clouds', 'description': 'overcast clouds', 'icon': '04d'}]",10.0,,2.1
322,stations,3.0,200,53.45,125.8,1562640193.0,2020591.0,960.78,36.0,1006.19,1006.19,300.283,300.283,300.283,,Magdagachi,,,RU,,0.006,1562613540.0,1562673865.0,,32400.0,,"[{'id': 800, 'main': 'Clear', 'description': 'clear sky', 'icon': '01d'}]",198.457,,3.28
323,stations,20.0,200,13.62,-87.66,1562640193.0,3607294.0,,73.0,1021.0,,295.15,295.15,295.15,,Langue,,,HN,7102.0,0.0048,1562585325.0,1562631733.0,1.0,-21600.0,10000.0,"[{'id': 801, 'main': 'Clouds', 'description': 'few clouds', 'icon': '02n'}]",90.0,,2.1
324,stations,0.0,200,43.97,3.47,1562640194.0,2969157.0,,64.0,1010.0,,297.38,297.59,297.15,,Estelle,,,FR,6518.0,0.0057,1562645516.0,1562700613.0,1.0,7200.0,10000.0,"[{'id': 800, 'main': 'Clear', 'description': 'clear sky', 'icon': '01n'}]",20.0,,3.6
325,stations,40.0,200,-20.01,57.66,1562640194.0,934479.0,,94.0,1019.0,,293.41,293.71,293.15,,Grand Gaube,,,MU,2061.0,0.0066,1562640299.0,1562679816.0,1.0,14400.0,10000.0,"[{'id': 802, 'main': 'Clouds', 'description': 'scattered clouds', 'icon': '03n'}]",320.0,,2.6
326,,,404,,,,,,,,,,,,city not found,,,,,,,,,,,,,,,
327,stations,0.0,200,30.15,68.58,1562640194.0,1179515.0,867.32,22.0,996.39,996.39,306.463,306.463,306.463,,Duki,,,PK,,0.0055,1562632252.0,1562682621.0,,18000.0,,"[{'id': 800, 'main': 'Clear', 'description': 'clear sky', 'icon': '01d'}]",289.334,,1.05
328,stations,23.0,200,49.49,105.92,1562640194.0,2031964.0,895.48,52.0,1008.5,1008.5,296.673,296.673,296.673,,Darhan,,,MN,,0.0071,1562619560.0,1562677388.0,,28800.0,,"[{'id': 801, 'main': 'Clouds', 'description': 'few clouds', 'icon': '02d'}]",142.226,,2.09
329,stations,100.0,200,65.73,150.89,1562640195.0,2119283.0,999.98,29.0,1006.67,1006.67,299.643,299.643,299.643,,Zyryanka,,,RU,,0.0066,1562598662.0,1562676698.0,,39600.0,,"[{'id': 804, 'main': 'Clouds', 'description': 'overcast clouds', 'icon': '04d'}]",162.42,,7.42
330,stations,96.0,200,64.92,77.78,1562640136.0,1490085.0,,75.0,998.0,,285.37,285.37,285.37,,Tarko-Sale,,,RU,265489.0,0.0078,1562617622.0,1562692835.0,3.0,18000.0,,"[{'id': 804, 'main': 'Clouds', 'description': 'overcast clouds', 'icon': '04d'}]",67.0,3.13,1.79
331,stations,40.0,200,-19.98,57.61,1562640195.0,934649.0,,94.0,1019.0,,293.41,293.71,293.15,,Cap Malheureux,,,MU,2061.0,0.0056,1562640307.0,1562679832.0,1.0,14400.0,10000.0,"[{'id': 802, 'main': 'Clouds', 'description': 'scattered clouds', 'icon': '03n'}]",320.0,,2.6
332,stations,20.0,200,-6.09,-35.21,1562640195.0,3393922.0,,83.0,1018.0,,296.62,297.15,296.15,,Nisia Floresta,,,BR,8417.0,0.0062,1562574731.0,1562617149.0,1.0,-10800.0,10000.0,"[{'id': 801, 'main': 'Clouds', 'description': 'few clouds', 'icon': '02n'}]",180.0,,3.6
333,stations,100.0,200,-37.83,140.78,1562640196.0,2156643.0,,82.0,1019.0,,287.15,287.15,287.15,,Mount Gambier,,0.75,AU,9560.0,0.0078,1562622708.0,1562657505.0,1.0,34200.0,10000.0,"[{'id': 500, 'main': 'Rain', 'description': 'light rain', 'icon': '10d'}]",340.0,,4.1
334,stations,66.0,200,64.27,100.22,1562640196.0,2014833.0,955.05,58.0,999.49,999.49,291.733,291.733,291.733,,Tura,,0.312,RU,,0.0062,1562613079.0,1562686605.0,,25200.0,,"[{'id': 500, 'main': 'Rain', 'description': 'light rain', 'icon': '10d'}]",212.218,,7.33
335,stations,76.0,200,62.53,155.8,1562640196.0,2122493.0,914.81,35.0,1012.48,1012.48,290.673,290.673,290.673,,Omsukchan,,,RU,,0.0069,1562601477.0,1562671527.0,,39600.0,,"[{'id': 803, 'main': 'Clouds', 'description': 'broken clouds', 'icon': '04d'}]",163.082,,2.03
336,stations,2.0,200,-9.87,-56.08,1562640196.0,6316343.0,983.42,56.0,1015.91,1015.91,295.723,295.723,295.723,,Alta Floresta,,,BR,,0.0067,1562580121.0,1562621777.0,,-14400.0,,"[{'id': 800, 'main': 'Clear', 'description': 'clear sky', 'icon': '01n'}]",147.17,,1.35
337,stations,100.0,200,-2.02,147.27,1562640197.0,2092164.0,1000.25,72.0,1008.66,1008.66,301.703,301.703,301.703,,Lorengau,,,PG,,0.0086,1562616934.0,1562660164.0,,36000.0,,"[{'id': 804, 'main': 'Clouds', 'description': 'overcast clouds', 'icon': '04d'}]",148.587,,5.6
338,,,404,,,,,,,,,,,,city not found,,,,,,,,,,,,,,,
339,stations,20.0,200,45.16,10.79,1562640197.0,3174050.0,,68.0,1012.0,,294.44,297.15,292.59,,Mantua,,,IT,6776.0,0.0079,1562643495.0,1562699121.0,1.0,7200.0,10000.0,"[{'id': 801, 'main': 'Clouds', 'description': 'few clouds', 'icon': '02n'}]",80.0,,4.1
340,stations,99.0,200,-45.41,167.72,1562640196.0,2181625.0,952.84,75.0,1006.9,1006.9,280.373,280.373,280.373,,Te Anau,,,NZ,,0.0057,1562617650.0,1562649631.0,,43200.0,,"[{'id': 804, 'main': 'Clouds', 'description': 'overcast clouds', 'icon': '04d'}]",322.543,,3.22
341,stations,76.0,200,42.84,93.51,1562640149.0,1529484.0,899.64,16.0,1004.56,1004.56,305.363,305.363,305.363,,Hami,,,CN,,0.0056,1562624134.0,1562678772.0,,28800.0,,"[{'id': 803, 'main': 'Clouds', 'description': 'broken clouds', 'icon': '04d'}]",141.454,,4.48
342,,,404,,,,,,,,,,,,city not found,,,,,,,,,,,,,,,
343,stations,75.0,200,33.93,134.5,1562640198.0,1865309.0,,88.0,1006.0,,297.69,298.15,297.15,,Katsuura,,,JP,8027.0,0.0079,1562615872.0,1562667356.0,1.0,32400.0,10000.0,"[{'id': 520, 'main': 'Rain', 'description': 'light intensity shower rain', 'icon': '09d'}]",160.0,,3.1
344,stations,90.0,200,16.99,-99.26,1562640198.0,3532499.0,,83.0,1013.0,,302.15,302.15,302.15,,Tecoanapa,,,MX,7103.0,0.0061,1562587743.0,1562634884.0,1.0,-18000.0,9656.0,"[{'id': 804, 'main': 'Clouds', 'description': 'overcast clouds', 'icon': '04n'}]",190.0,,1.5
345,stations,94.0,200,68.06,166.44,1562640198.0,2126682.0,934.46,41.0,1013.23,1013.23,293.473,293.473,293.473,,Bilibino,,,RU,,0.0065,0.0,0.0,,43200.0,,"[{'id': 804, 'main': 'Clouds', 'description': 'overcast clouds', 'icon': '04d'}]",193.116,,4.18
346,,,404,,,,,,,,,,,,city not found,,,,,,,,,,,,,,,
347,stations,11.0,200,42.43,130.64,1562640199.0,2039557.0,997.02,64.0,1011.03,1011.03,295.573,295.573,295.573,,Khasan,,,RU,,0.0061,1562615302.0,1562669779.0,,36000.0,,"[{'id': 801, 'main': 'Clouds', 'description': 'few clouds', 'icon': '02d'}]",121.342,,3.95
348,,,404,,,,,,,,,,,,city not found,,,,,,,,,,,,,,,
349,stations,0.0,200,-34.61,-58.36,1562640200.0,3435910.0,,76.0,1021.0,,283.56,285.15,281.15,,Puerto Madero,,,AR,8224.0,0.0065,1562583608.0,1562619385.0,1.0,-10800.0,10000.0,"[{'id': 800, 'main': 'Clear', 'description': 'clear sky', 'icon': '01n'}]",20.0,,2.1
350,stations,39.0,200,-13.87,-171.6,1562640200.0,4035249.0,,74.0,1010.0,,303.71,303.71,303.71,,Lufilufi,,3.375,WS,47733.0,0.007,1562694660.0,1562735511.0,3.0,46800.0,,"[{'id': 501, 'main': 'Rain', 'description': 'moderate rain', 'icon': '10n'}]",60.0,,4.02
351,stations,100.0,200,10.74,13.8,1562640201.0,2226275.0,965.5,87.0,1013.88,1013.88,296.313,296.313,296.313,,Mokolo,,5.625,CM,,0.0067,1562647689.0,1562693481.0,,3600.0,,"[{'id': 501, 'main': 'Rain', 'description': 'moderate rain', 'icon': '10n'}]",18.679,,4.16
352,stations,67.0,200,50.2,-66.38,1562640047.0,6144312.0,958.14,65.0,1005.9,1005.9,284.503,284.503,284.503,,Sept-Iles,,,CA,,0.0074,1562574281.0,1562632562.0,,-14400.0,,"[{'id': 803, 'main': 'Clouds', 'description': 'broken clouds', 'icon': '04n'}]",313.087,,4.49
353,stations,0.0,200,-13.19,49.05,1562640201.0,1082243.0,1011.96,87.0,1016.0,1016.0,294.593,294.593,294.593,,Ambilobe,,,MG,,0.0066,1562641633.0,1562682616.0,,10800.0,,"[{'id': 800, 'main': 'Clear', 'description': 'clear sky', 'icon': '01n'}]",100.942,,2.02
354,stations,0.0,200,48.59,57.19,1562640202.0,608270.0,982.55,29.0,1009.46,1009.46,298.373,298.373,298.373,,Shubarshi,,,KZ,,0.0069,1562631508.0,1562688832.0,,18000.0,,"[{'id': 800, 'main': 'Clear', 'description': 'clear sky', 'icon': '01d'}]",169.273,,3.82
355,stations,28.0,200,-1.07,34.47,1562640202.0,186731.0,887.96,69.0,1014.52,1014.52,294.203,294.203,294.203,,Migori,,,KE,,0.0073,1562643914.0,1562687333.0,,10800.0,,"[{'id': 802, 'main': 'Clouds', 'description': 'scattered clouds', 'icon': '03n'}]",97.701,,5.1
356,stations,35.0,200,50.6,97.53,1562640202.0,1501377.0,824.79,54.0,1007.34,1007.34,294.613,294.613,294.613,,Kungurtug,,1.312,RU,,0.0082,1562621254.0,1562679722.0,,25200.0,,"[{'id': 500, 'main': 'Rain', 'description': 'light rain', 'icon': '10d'}]",1.341,,0.9
357,stations,75.0,200,37.57,126.98,1562639805.0,1835848.0,,47.0,1007.0,,299.88,301.15,298.15,,Seoul,,,KR,5509.0,0.0078,1562617087.0,1562669751.0,1.0,32400.0,10000.0,"[{'id': 803, 'main': 'Clouds', 'description': 'broken clouds', 'icon': '04d'}]",10.0,5.7,2.1
358,stations,66.0,200,41.17,75.81,1562640203.0,1528796.0,,94.0,1016.0,,292.88,293.15,292.59,,At-Bashi,,,KG,2002423.0,0.0086,1562628718.0,1562682684.0,3.0,21600.0,,"[{'id': 803, 'main': 'Clouds', 'description': 'broken clouds', 'icon': '04d'}]",111.54,,1.1
359,stations,90.0,200,23.99,-104.67,1562640203.0,4011743.0,,77.0,1024.0,,290.52,290.93,290.15,,Constitucion,0.76,,MX,7113.0,0.0071,1562588225.0,1562636998.0,1.0,-18000.0,14484.0,"[{'id': 500, 'main': 'Rain', 'description': 'light rain', 'icon': '10n'}]",341.802,,0.77
360,stations,92.0,200,54.77,-101.88,1562640203.0,5954718.0,970.12,53.0,1009.35,1009.35,289.923,289.923,289.923,,Flin Flon,,,CA,,0.008,1562581269.0,1562642616.0,,-18000.0,,"[{'id': 804, 'main': 'Clouds', 'description': 'overcast clouds', 'icon': '04n'}]",352.285,,2.23
361,stations,90.0,200,-7.84,-79.15,1562640203.0,3698359.0,,93.0,1015.0,,290.15,290.15,290.15,,Chicama,,,PE,8690.0,0.0074,1562585453.0,1562627520.0,1.0,-18000.0,6000.0,"[{'id': 701, 'main': 'Mist', 'description': 'mist', 'icon': '50n'}]",160.0,,3.1
362,stations,31.0,200,47.61,-57.61,1562640204.0,5911440.0,1006.28,76.0,1006.04,1006.04,286.693,286.693,286.693,,Burgeo,,,CA,,0.0068,1562659332.0,1562716119.0,,-9000.0,,"[{'id': 802, 'main': 'Clouds', 'description': 'scattered clouds', 'icon': '03n'}]",234.185,,6.14
363,stations,100.0,200,58.33,44.76,1562640204.0,529505.0,985.64,91.0,1003.55,1003.55,285.793,285.793,285.793,,Manturovo,,,RU,,0.0051,1562630926.0,1562695382.0,,10800.0,,"[{'id': 804, 'main': 'Clouds', 'description': 'overcast clouds', 'icon': '04d'}]",107.403,,2.32
364,stations,90.0,200,40.6,-124.16,1562640204.0,5563839.0,,82.0,1017.0,,289.44,290.37,288.15,,Fortuna,,,US,4127.0,0.0072,1562590403.0,1562644177.0,1.0,-25200.0,16093.0,"[{'id': 804, 'main': 'Clouds', 'description': 'overcast clouds', 'icon': '04n'}]",280.0,,4.6
365,stations,65.0,200,-22.09,-70.2,1562640204.0,3869716.0,1016.9,85.0,1015.42,1015.42,287.943,287.943,287.943,,Tocopilla,,,CL,,0.0069,1562584823.0,1562623853.0,,-14400.0,,"[{'id': 803, 'main': 'Clouds', 'description': 'broken clouds', 'icon': '04n'}]",210.006,,4.66
366,stations,0.0,200,2.82,-60.67,1562640006.0,3664980.0,,83.0,1015.0,,299.15,299.15,299.15,,Boa Vista,,,BR,8340.0,0.0126,1562579954.0,1562624147.0,1.0,-14400.0,10000.0,"[{'id': 800, 'main': 'Clear', 'description': 'clear sky', 'icon': '01n'}]",230.0,,1.0
367,stations,0.0,200,20.52,-13.05,1562640205.0,2381334.0,991.46,16.0,1008.68,1008.68,305.833,305.833,305.833,,Atar,,,MR,,0.0082,1562653068.0,1562700991.0,,0.0,,"[{'id': 800, 'main': 'Clear', 'description': 'clear sky', 'icon': '01n'}]",9.98,,7.62
368,,,404,,,,,,,,,,,,city not found,,,,,,,,,,,,,,,
369,stations,19.0,200,-28.77,32.06,1562640205.0,962367.0,1022.55,82.0,1022.91,1022.91,291.813,291.813,291.813,,Richards Bay,,,ZA,,0.0059,1562647490.0,1562684915.0,,7200.0,,"[{'id': 801, 'main': 'Clouds', 'description': 'few clouds', 'icon': '02n'}]",258.765,,3.61
370,stations,27.0,200,3.46,-73.62,1562640206.0,3682299.0,908.62,88.0,1018.13,1018.13,289.523,289.523,289.523,,Fuente de Oro,,,CO,,0.0058,1562582999.0,1562627319.0,,-18000.0,,"[{'id': 802, 'main': 'Clouds', 'description': 'scattered clouds', 'icon': '03n'}]",282.14,,1.84
371,,,404,,,,,,,,,,,,city not found,,,,,,,,,,,,,,,
372,stations,100.0,200,26.54,-77.06,1562640081.0,3571913.0,1015.75,73.0,1015.72,1015.72,301.943,301.943,301.943,,Marsh Harbour,,2.562,BS,,0.0096,1562581275.0,1562630695.0,,-14400.0,,"[{'id': 500, 'main': 'Rain', 'description': 'light rain', 'icon': '10n'}]",174.908,,7.22
373,stations,0.0,200,49.65,0.71,1562640206.0,3031871.0,,81.0,1020.0,,284.09,286.15,282.59,,Veraval,,,FR,6536.0,0.0074,1562644781.0,1562702673.0,1.0,7200.0,10000.0,"[{'id': 800, 'main': 'Clear', 'description': 'clear sky', 'icon': '01n'}]",70.0,,3.1
374,stations,20.0,200,55.75,38.0,1562640206.0,463355.0,,87.0,1001.0,,284.81,287.04,283.15,,Zheleznodorozhnyy,,,RU,9020.0,0.0073,1562633746.0,1562695807.0,1.0,10800.0,1500.0,"[{'id': 741, 'main': 'Fog', 'description': 'fog', 'icon': '50d'}]",270.0,,1.0
375,stations,100.0,200,20.78,97.03,1562640207.0,1293960.0,889.56,82.0,1007.69,1007.69,295.193,295.193,295.193,,Taunggyi,,,MM,,0.0085,1562626612.0,1562674604.0,,23400.0,,"[{'id': 804, 'main': 'Clouds', 'description': 'overcast clouds', 'icon': '04d'}]",188.326,,2.89
376,stations,100.0,200,28.88,112.34,1562640207.0,1797543.0,1001.99,83.0,1005.5,1005.5,297.153,297.153,297.153,,Tianpeng,,0.188,CN,,0.0062,1562621921.0,1562671945.0,,28800.0,,"[{'id': 500, 'main': 'Rain', 'description': 'light rain', 'icon': '10d'}]",358.872,,3.0
377,stations,0.0,200,-26.39,-70.05,1562640207.0,3892454.0,943.16,90.0,1019.9,1019.9,280.413,280.413,280.413,,Diego de Almagro,,,CL,,0.0066,1562585301.0,1562623304.0,,-14400.0,,"[{'id': 800, 'main': 'Clear', 'description': 'clear sky', 'icon': '01n'}]",267.561,,1.48
378,stations,100.0,200,3.78,72.97,1562640207.0,1337605.0,1010.18,76.0,1010.17,1010.17,302.223,302.223,302.223,,Mahibadhoo,,0.188,MV,,0.0099,1562634192.0,1562678574.0,,18000.0,,"[{'id': 500, 'main': 'Rain', 'description': 'light rain', 'icon': '10d'}]",170.774,,5.87
379,stations,94.0,200,68.22,-135.01,1562640128.0,5882953.0,1011.91,42.0,1018.67,1018.67,292.283,292.283,292.283,,Aklavik,,,CA,,0.0078,0.0,0.0,,-21600.0,,"[{'id': 804, 'main': 'Clouds', 'description': 'overcast clouds', 'icon': '04d'}]",53.646,,1.67
380,stations,75.0,200,45.41,141.67,1562640208.0,2127515.0,,82.0,1014.0,,288.15,288.15,288.15,,Wakkanai,,,JP,7981.0,0.0081,1562612010.0,1562667777.0,1.0,32400.0,10000.0,"[{'id': 803, 'main': 'Clouds', 'description': 'broken clouds', 'icon': '04d'}]",80.0,,6.2
381,stations,31.0,200,-32.03,-52.1,1562640208.0,3451138.0,1024.04,94.0,1025.14,1025.14,280.423,280.423,280.423,,Rio Grande,,,BR,,0.0079,1562581734.0,1562618254.0,,-10800.0,,"[{'id': 802, 'main': 'Clouds', 'description': 'scattered clouds', 'icon': '03n'}]",31.572,,1.36
382,,,404,,,,,,,,,,,,city not found,,,,,,,,,,,,,,,
383,stations,1.0,200,45.36,-73.48,1562640208.0,6138908.0,,72.0,1015.0,,294.27,297.04,292.15,,Saint-Philippe,,,CA,4146.0,0.0082,1562577239.0,1562633012.0,1.0,-14400.0,16093.0,"[{'id': 800, 'main': 'Clear', 'description': 'clear sky', 'icon': '01n'}]",263.434,,3.87
384,stations,1.0,200,48.55,-109.68,1562640209.0,5656497.0,,35.0,1012.0,,293.58,296.15,292.59,,Havre,,,US,4447.0,0.0096,1562585140.0,1562642489.0,1.0,-21600.0,16093.0,"[{'id': 800, 'main': 'Clear', 'description': 'clear sky', 'icon': '01n'}]",340.0,,2.6
385,stations,100.0,200,72.79,-56.15,1562640209.0,3418910.0,1017.06,84.0,1017.28,1017.28,278.013,278.013,278.013,,Upernavik,,,GL,,0.007,0.0,0.0,,-7200.0,,"[{'id': 804, 'main': 'Clouds', 'description': 'overcast clouds', 'icon': '04d'}]",353.417,,8.71
386,stations,82.0,200,52.74,23.58,1562640209.0,771158.0,,80.0,1009.0,,285.4,286.48,284.82,,Hajnowka,,,PL,2017469.0,0.007,1562638336.0,1562698139.0,3.0,7200.0,,"[{'id': 803, 'main': 'Clouds', 'description': 'broken clouds', 'icon': '04d'}]",257.446,,4.66
387,stations,100.0,200,56.66,16.36,1562640209.0,2702261.0,,76.0,1008.0,,287.64,288.15,287.15,,Kalmar,,,SE,1757.0,0.0071,1562638551.0,1562701390.0,1.0,7200.0,10000.0,"[{'id': 804, 'main': 'Clouds', 'description': 'overcast clouds', 'icon': '04d'}]",290.0,,2.6
388,stations,0.0,200,37.78,38.62,1562640210.0,310855.0,,27.0,1008.0,,298.59,299.15,298.15,,Kahta,,,TR,7005.0,0.0061,1562638266.0,1562690989.0,1.0,10800.0,10000.0,"[{'id': 800, 'main': 'Clear', 'description': 'clear sky', 'icon': '01d'}]",300.0,,6.2
389,stations,100.0,200,55.33,-3.44,1562640210.0,2642384.0,,93.0,1020.0,,285.35,286.48,284.15,,Moffat,,,GB,1431.0,0.0083,1562643871.0,1562705575.0,1.0,3600.0,10000.0,"[{'id': 500, 'main': 'Rain', 'description': 'light rain', 'icon': '10n'}]",300.0,,0.5
390,stations,2.0,200,-11.2,13.84,1562640210.0,3346015.0,1013.91,81.0,1014.46,1014.46,295.023,295.023,295.023,,Sumbe,,,AO,,0.0067,1562649878.0,1562691272.0,,3600.0,,"[{'id': 800, 'main': 'Clear', 'description': 'clear sky', 'icon': '01n'}]",155.952,,1.84
391,stations,65.0,200,16.65,-14.96,1562640210.0,2245170.0,1009.42,61.0,1011.57,1011.57,298.143,298.143,298.143,,Podor,,,MR,,0.0056,1562653963.0,1562701013.0,,0.0,,"[{'id': 803, 'main': 'Clouds', 'description': 'broken clouds', 'icon': '04n'}]",274.783,,6.08
392,,,404,,,,,,,,,,,,city not found,,,,,,,,,,,,,,,
393,stations,0.0,200,18.39,42.45,1562640138.0,110690.0,,68.0,1022.0,,293.7,295.15,292.15,,Faya,,,SA,7396.0,0.0057,1562639988.0,1562687429.0,1.0,10800.0,10000.0,"[{'id': 800, 'main': 'Clear', 'description': 'clear sky', 'icon': '01d'}]",272.996,,1.09
394,stations,40.0,200,14.69,-16.54,1562640211.0,2249901.0,,83.0,1014.0,,298.15,298.15,298.15,,Gat,,,SN,2410.0,0.0081,1562654555.0,1562701179.0,1.0,0.0,8000.0,"[{'id': 802, 'main': 'Clouds', 'description': 'scattered clouds', 'icon': '03n'}]",310.0,,3.1
395,stations,6.0,200,41.29,13.25,1562640211.0,6541893.0,,74.0,1012.0,,297.17,298.15,295.93,,Terracina,,,IT,2012506.0,0.0071,1562643716.0,1562697718.0,3.0,7200.0,,"[{'id': 800, 'main': 'Clear', 'description': 'clear sky', 'icon': '01n'}]",71.42,,1.25
396,stations,0.0,200,28.66,-17.92,1562640212.0,2514651.0,,64.0,1021.0,,294.15,294.15,294.15,,Los Llanos de Aridane,,,ES,2377.0,0.0061,1562653224.0,1562703174.0,1.0,3600.0,10000.0,"[{'id': 800, 'main': 'Clear', 'description': 'clear sky', 'icon': '01n'}]",350.0,,5.1
397,stations,93.0,200,19.07,83.81,1562640212.0,1270667.0,963.27,71.0,1003.49,1003.49,300.793,300.793,300.793,,Gunupur,,,IN,,0.0076,1562629982.0,1562677580.0,,19800.0,,"[{'id': 804, 'main': 'Clouds', 'description': 'overcast clouds', 'icon': '04d'}]",261.594,,1.53
398,stations,77.0,200,53.51,142.97,1562640212.0,2122614.0,1017.21,79.0,1017.98,1017.98,283.653,283.653,283.653,,Ekhabi,,,RU,,0.0072,1562609395.0,1562669768.0,,39600.0,,"[{'id': 803, 'main': 'Clouds', 'description': 'broken clouds', 'icon': '04d'}]",28.847,,2.3
399,stations,100.0,200,13.06,5.24,1562640212.0,2322911.0,979.98,76.0,1011.96,1011.96,298.663,298.663,298.663,,Sokoto,,,NG,,0.0068,1562649501.0,1562695778.0,,3600.0,,"[{'id': 804, 'main': 'Clouds', 'description': 'overcast clouds', 'icon': '04n'}]",185.267,,5.44
400,stations,20.0,200,36.36,6.61,1562640213.0,2501152.0,,44.0,1016.0,,297.15,297.15,297.15,,Constantine,,,DZ,1074.0,0.0073,1562646191.0,1562698431.0,1.0,3600.0,10000.0,"[{'id': 801, 'main': 'Clouds', 'description': 'few clouds', 'icon': '02n'}]",150.0,,2.6
401,,,404,,,,,,,,,,,,city not found,,,,,,,,,,,,,,,
402,stations,90.0,200,43.04,42.73,1562640213.0,612987.0,785.69,93.0,1011.72,1011.72,282.863,282.863,282.863,,Mestia,,,GE,,0.0063,1562636286.0,1562690997.0,,14400.0,,"[{'id': 804, 'main': 'Clouds', 'description': 'overcast clouds', 'icon': '04d'}]",310.252,,0.44
403,,,404,,,,,,,,,,,,city not found,,,,,,,,,,,,,,,
404,stations,100.0,200,63.05,179.32,1562640213.0,2126710.0,998.36,41.0,1014.36,1014.36,291.783,291.783,291.783,,Beringovskiy,,,RU,,0.0065,1562595357.0,1562666356.0,,43200.0,,"[{'id': 804, 'main': 'Clouds', 'description': 'overcast clouds', 'icon': '04d'}]",87.779,,2.5
405,stations,75.0,200,54.0,-6.4,1562640214.0,2964540.0,,93.0,1021.0,,287.24,287.59,287.04,,Dundalk,0.25,,GB,1565.0,0.0081,1562645093.0,1562705774.0,1.0,3600.0,6000.0,"[{'id': 500, 'main': 'Rain', 'description': 'light rain', 'icon': '10n'}]",,,1.0
406,stations,1.0,200,35.6,103.21,1562639944.0,1803331.0,764.23,59.0,1010.09,1010.09,288.993,288.993,288.993,,Linxia,,,CN,,0.0064,1562623122.0,1562675127.0,,28800.0,,"[{'id': 800, 'main': 'Clear', 'description': 'clear sky', 'icon': '01d'}]",61.821,,2.43
407,stations,0.0,200,45.32,55.19,1562640214.0,610298.0,1006.73,17.0,1006.71,1006.71,303.443,303.443,303.443,,Beyneu,,,KZ,,0.0053,1562632796.0,1562688505.0,,18000.0,,"[{'id': 800, 'main': 'Clear', 'description': 'clear sky', 'icon': '01d'}]",89.109,,5.59
408,stations,90.0,200,64.86,-147.8,1562640214.0,5859699.0,,36.0,1013.0,,299.67,300.93,298.15,,College,,,US,7684.0,0.0072,1562585378.0,1562660550.0,1.0,-28800.0,1609.0,"[{'id': 711, 'main': 'Smoke', 'description': 'smoke', 'icon': '50n'}, {'id': 721, 'main': 'Haze', 'description': 'haze', 'icon': '50n'}]",79.382,,2.86
409,stations,5.0,200,22.89,-109.91,1562640188.0,3985710.0,,31.0,1012.0,,301.23,305.15,298.15,,Cabo San Lucas,,,MX,7151.0,0.0079,1562589618.0,1562638122.0,1.0,-21600.0,12874.0,"[{'id': 800, 'main': 'Clear', 'description': 'clear sky', 'icon': '01n'}]",290.0,,8.2
410,stations,0.0,200,35.01,37.05,1562640215.0,164947.0,953.3,62.0,1006.83,1006.83,295.173,295.173,295.173,,Salamiyah,,,SY,,0.0079,1562639101.0,1562690908.0,,10800.0,,"[{'id': 800, 'main': 'Clear', 'description': 'clear sky', 'icon': '01d'}]",233.64,,4.83
411,,,404,,,,,,,,,,,,city not found,,,,,,,,,,,,,,,
412,stations,40.0,200,35.76,-83.97,1562640215.0,4639848.0,,65.0,1014.0,,298.46,301.15,295.93,,Maryville,,,US,6098.0,0.01,1562581603.0,1562633684.0,1.0,-14400.0,16093.0,"[{'id': 802, 'main': 'Clouds', 'description': 'scattered clouds', 'icon': '03n'}]",360.0,,3.1
413,stations,94.0,200,-8.15,159.59,1562640049.0,2109528.0,998.14,80.0,1007.24,1007.24,301.343,301.343,301.343,,Buala,,2.25,SB,,0.0054,1562614588.0,1562656596.0,,39600.0,,"[{'id': 500, 'main': 'Rain', 'description': 'light rain', 'icon': '10d'}]",127.409,,6.15
414,stations,0.0,200,31.86,10.98,1562640216.0,2214433.0,962.15,21.0,1013.33,1013.33,300.933,300.933,300.933,,Nalut,,,LY,,0.0091,1562645838.0,1562696686.0,,7200.0,,"[{'id': 800, 'main': 'Clear', 'description': 'clear sky', 'icon': '01n'}]",160.739,,4.82
415,stations,82.0,200,43.35,52.85,1562640216.0,607610.0,986.62,24.0,1004.35,1004.35,302.493,302.493,302.493,,Zhanaozen,,0.375,KZ,,0.0069,1562633791.0,1562688634.0,,18000.0,,"[{'id': 500, 'main': 'Rain', 'description': 'light rain', 'icon': '10d'}]",106.666,,7.09
416,stations,1.0,200,46.49,-84.36,1562640216.0,5009004.0,,68.0,1017.0,,292.15,292.15,292.15,,Sault Sainte Marie,,,CA,3293.0,0.0082,1562579584.0,1562635890.0,1.0,-14400.0,16093.0,"[{'id': 721, 'main': 'Haze', 'description': 'haze', 'icon': '50n'}]",250.0,,2.1
417,,,404,,,,,,,,,,,,city not found,,,,,,,,,,,,,,,
418,stations,75.0,200,-31.97,141.45,1562640217.0,2173911.0,,50.0,1023.0,,287.15,287.15,287.15,,Broken Hill,,,AU,9491.0,0.0087,1562621668.0,1562658224.0,1.0,34200.0,10000.0,"[{'id': 803, 'main': 'Clouds', 'description': 'broken clouds', 'icon': '04d'}]",280.0,,4.1
419,stations,25.0,200,60.72,-135.06,1562640175.0,6180550.0,,27.0,1012.0,,297.04,297.04,297.04,,Whitehorse,,,CA,47668.0,0.0105,1562586233.0,1562653580.0,3.0,-25200.0,,"[{'id': 802, 'main': 'Clouds', 'description': 'scattered clouds', 'icon': '03n'}]",10.0,,2.24
420,stations,75.0,200,24.34,124.16,1562640217.0,1861416.0,,79.0,1004.0,,304.15,304.15,304.15,,Ishigaki,,,JP,8139.0,0.0076,1562619672.0,1562668520.0,1.0,32400.0,10000.0,"[{'id': 803, 'main': 'Clouds', 'description': 'broken clouds', 'icon': '04d'}]",240.0,,7.2
421,stations,54.0,200,-7.95,110.28,1562640217.0,1650434.0,1014.76,74.0,1014.95,1014.95,298.043,298.043,298.043,,Bambanglipuro,,,ID,,0.0062,1562626403.0,1562668452.0,,25200.0,,"[{'id': 803, 'main': 'Clouds', 'description': 'broken clouds', 'icon': '04d'}]",117.569,,7.79
422,stations,85.0,200,41.67,-3.69,1562640217.0,3129877.0,915.4,91.0,1015.3,1015.3,287.463,287.463,287.463,,Aranda de Duero,,,ES,,0.0063,1562647709.0,1562701857.0,,7200.0,,"[{'id': 804, 'main': 'Clouds', 'description': 'overcast clouds', 'icon': '04n'}]",25.298,,5.36
